[
  {
    "name": "Clínica Santa Fé",
    "address_1": "Del Hospital de Guápiles, 100 metros Oeste y 25 metros Norte",
    "address_2": "Limón Province, Guapiles",
    "website": "",
    "rating": "4,5",
    "reviews_count": 8,
    "thumbnail": "https://lh5.googleusercontent.com/p/AF1QipNwqP1h_J6wFGdWDcGTNCa56QvT61FaAY2MJArd",
    "latitude": 10.2168745,
    "longitude": -83.7905456,
    "type": "Medical clinic"
  },
  {
    "name": "Clínica Santa Mónica",
    "address_1": "6686+G25",
    "address_2": "Limón, Guápiles",
    "website": "",
    "rating": "",
    "reviews_count": "",
    "thumbnail": "",
    "latitude": 10.2162728,
    "longitude": -83.7899013,
    "type": "Public medical center"
  },
  {
    "name": "Clínica Armonía",
    "address_1": "110 metros oeste del Hospital de",
    "address_2": "Limón, Guápiles",
    "website": "clinicaarmonia.negocio.site",
    "rating": "",
    "reviews_count": "",
    "thumbnail": "",
    "latitude": 10.2165339,
    "longitude": -83.7911279,
    "type": "Specialized clinic"
  },
  {
    "name": "Clínica Atlántica",
    "address_1": "6675+PHF",
    "address_2": "Limón Province, Guapiles",
    "website": "clinicaatlanticacr.com",
    "rating": "3,1",
    "reviews_count": 21,
    "thumbnail": "https://lh5.googleusercontent.com/p/AF1QipPJDlrUfpoas9iwn0skWX191hHWDRtFbeZAo8Hp",
    "latitude": 10.2143883,
    "longitude": -83.7911455,
    "type": "Medical clinic"
  },
  {
    "name": "Clínica Asembis Guápiles",
    "address_1": "De la estación de bomberos, 300 mts. Oeste",
    "address_2": "Limón, Guápiles",
    "website": "asembis.org",
    "rating": "3,9",
    "reviews_count": 30,
    "thumbnail": "https://lh5.googleusercontent.com/p/AF1QipOm1r5I8AGgv6M9b5Jp_8mpTUzy62Tl-5PAyrMc",
    "latitude": 10.2160987,
    "longitude": -83.7930749,
    "type": "Medical clinic"
  },
  {
    "name": "Clínica MD",
    "address_1": "100 metros sur del BCR",
    "address_2": "Limón, Guápiles",
    "website": "",
    "rating": "",
    "reviews_count": "",
    "thumbnail": "",
    "latitude": 10.2136788,
    "longitude": -83.7890894,
    "type": "Psychotherapist"
  },
  {
    "name": "Kerygma Clínica y Laboratorio",
    "address_1": "Avenida 7 125m oeste del Hospital de",
    "address_2": "Limón, Guápiles",
    "website": "kerygmaclinica.com",
    "rating": "4,8",
    "reviews_count": 11,
    "thumbnail": "https://lh5.googleusercontent.com/p/AF1QipNOqgb6ku-U8DE4S8oa2RyX552bnVcnJ5b4bnM4",
    "latitude": 10.216531,
    "longitude": -83.7911037,
    "type": "Medical clinic"
  },
  {
    "name": "Clinica ASOMED",
    "address_1": "Av 11, Guápiles, de Subway 100 norte y 25 oeste frente al CECUDI",
    "address_2": "Av. 11",
    "website": "",
    "rating": "4,6",
    "reviews_count": 5,
    "thumbnail": "",
    "latitude": 10.2179589,
    "longitude": -83.7909883,
    "type": "Medical clinic"
  },
  {
    "name": "Clínica Dental Dr. Baltodano",
    "address_1": "Urbanización el Llano, entrada la llantera 175 mts al oeste y 75 al sur Limón Cariari, Guápiles, Pococí",
    "address_2": 70205,
    "website": "",
    "rating": "",
    "reviews_count": "",
    "thumbnail": "https://lh5.googleusercontent.com/p/AF1QipMjz2mhBQNg7N_BtbOL-mKixJNLXvr9sJLWa3TD",
    "latitude": 10.3568092,
    "longitude": -83.7388157,
    "type": "Dental clinic"
  },
  {
    "name": "Eco-clinic Odontología y especialidades",
    "address_1": "200 metros oeste y 50 metros norte de la Fuerza Pública Limón Guápiles",
    "address_2": 70201,
    "website": "",
    "rating": "",
    "reviews_count": "",
    "thumbnail": "https://lh5.googleusercontent.com/p/AF1QipPi_3BzeGWBwTnCvOwI0t-kk6pwW6mkzbSJ1EB_",
    "latitude": 10.2189001,
    "longitude": -83.7912325,
    "type": "Dental clinic"
  },
  {
    "name": "Fundación Clínicas Sin Fronteras",
    "address_1": "Guapiles centro, de la Toyota 50m este mano izquierda o del Hotel Suerre 400m sur, 50m este Limón",
    "address_2": "Guápiles",
    "website": "clinicassinfronteras.org",
    "rating": 3,
    "reviews_count": 2,
    "thumbnail": "https://lh5.googleusercontent.com/p/AF1QipOOqgMs6QYlVFNzKHDhyaaroEtALxRMnXjlmubh",
    "latitude": 10.214716,
    "longitude": -83.780476,
    "type": "Medical clinic"
  },
  {
    "name": "Clínica C.C.S.S. Roxana",
    "address_1": "76CW+8V7",
    "address_2": "Limón, Roxana",
    "website": "",
    "rating": "3,4",
    "reviews_count": 8,
    "thumbnail": "https://lh5.googleusercontent.com/p/AF1QipP1_RUTOmZuaKbm2uGgiDBCjuVrQrChOsC8btjm",
    "latitude": 10.2707997,
    "longitude": -83.7528187,
    "type": "Medical clinic"
  },
  {
    "name": "Clínica Omega Dr. Diego Achán",
    "address_1": "6684+GRC",
    "address_2": "C. 6",
    "website": "",
    "rating": "",
    "reviews_count": "",
    "thumbnail": "",
    "latitude": 10.2164378,
    "longitude": -83.7931963,
    "type": "Dental clinic"
  },
  {
    "name": "Clínica Rodríguez Odontología Y Salud",
    "address_1": "9746+XRW",
    "address_2": "Limón, Pococí",
    "website": "",
    "rating": 5,
    "reviews_count": 1,
    "thumbnail": "https://lh5.googleusercontent.com/p/AF1QipPE3V80Ll2KPnMI-DasVhHwQyV16EMgEWkUqsjL",
    "latitude": 10.3574783,
    "longitude": -83.7379248,
    "type": "Dental clinic"
  },
  {
    "name": "Clínica DS",
    "address_1": "9757+3RH",
    "address_2": "El Colono",
    "website": "",
    "rating": 5,
    "reviews_count": 1,
    "thumbnail": "",
    "latitude": 10.3575732,
    "longitude": -83.7355214,
    "type": "Hospital"
  },
  {
    "name": "Clinica Cariari CCSS, Consulta Externa",
    "address_1": "9767+5Q8",
    "address_2": 247,
    "website": "",
    "rating": "4,3",
    "reviews_count": 12,
    "thumbnail": "https://lh5.googleusercontent.com/p/AF1QipP6OzoMvepJrFKOs9-oM03G_ua9fKvEVZLJLnt5",
    "latitude": 10.3604231,
    "longitude": -83.7355345,
    "type": "Public medical center"
  },
  {
    "name": "Clínica Caribe",
    "address_1": "6685+FJH",
    "address_2": "Limón, Guápiles",
    "website": "",
    "rating": "4,2",
    "reviews_count": 11,
    "thumbnail": "https://lh5.googleusercontent.com/p/AF1QipMJGc0nuHjoYJYtSrIqclhEV4_zDEgu6JwkGeJZ",
    "latitude": 10.2161945,
    "longitude": -83.7908914,
    "type": "Medical Center"
  },
  {
    "name": "Clínica Dental Dra. Ileana López",
    "address_1": "Calle 3, Limón",
    "address_2": "Guápiles",
    "website": "",
    "rating": "",
    "reviews_count": "",
    "thumbnail": "",
    "latitude": 10.2168981,
    "longitude": -83.7875854,
    "type": "Dental clinic"
  },
  {
    "name": "Ortodóncika Dr. Bismark Herrera",
    "address_1": "Cementerio Municipal de Guápiles",
    "address_2": "300 norte del",
    "website": "",
    "rating": "",
    "reviews_count": "",
    "thumbnail": "https://lh5.googleusercontent.com/p/AF1QipM6ru6fDgAAq6e8UhfS7ztIiqnMHTyui6X5sVci",
    "latitude": 10.3434989,
    "longitude": -83.5867234,
    "type": "Dental clinic"
  },
  {
    "name": "Cilios Audiología (Guápiles)",
    "address_1": "6686+F28",
    "address_2": "Guápiles,Limón Clínica Santa Mónica, diagonal al Hospital",
    "website": "",
    "rating": 5,
    "reviews_count": 1,
    "thumbnail": "",
    "latitude": 10.2161584,
    "longitude": -83.7899114,
    "type": "Medical clinic"
  },
  {
    "name": "Clinica Dental Dra.Dittel",
    "address_1": "6695+8FC",
    "address_2": "Av. 13",
    "website": "",
    "rating": "",
    "reviews_count": "",
    "thumbnail": "",
    "latitude": 10.2183046,
    "longitude": -83.7913545,
    "type": "Dental clinic"
  },
  {
    "name": "Clinica Sophia",
    "address_1": "6685+CM6",
    "address_2": "Blvr. de Guápiles",
    "website": "",
    "rating": "4,3",
    "reviews_count": 3,
    "thumbnail": "https://lh5.googleusercontent.com/p/AF1QipN_O4UHN1Qaj_U1ZH7UQpekwRX54oQGV7WqSokX",
    "latitude": 10.2160353,
    "longitude": -83.7908453,
    "type": "Doctor"
  },
  {
    "name": "Clinica Dental Dittel",
    "address_1": "6697+86C",
    "address_2": "C. 5",
    "website": "",
    "rating": "",
    "reviews_count": "",
    "thumbnail": "",
    "latitude": 10.218319,
    "longitude": -83.786999,
    "type": "Dental clinic"
  },
  {
    "name": "Fisioterapia y Osteopatia Ariel Monge",
    "address_1": "6657+V33",
    "address_2": "Limón, Guápiles",
    "website": "fisioterapiayosteopatiacr.com",
    "rating": 5,
    "reviews_count": 5,
    "thumbnail": "https://lh5.googleusercontent.com/p/AF1QipNYvMLRdzLYChMW16RVLLqD_gAPclGxmDSKub06",
    "latitude": 10.2096376,
    "longitude": -83.7873298,
    "type": "Physical therapy clinic"
  },
  {
    "name": "Clínica Soluciones Dentales",
    "address_1": "6668+2F6",
    "address_2": "C. 11",
    "website": "",
    "rating": "",
    "reviews_count": "",
    "thumbnail": "",
    "latitude": 10.2100482,
    "longitude": -83.7838595,
    "type": "Dental clinic"
  },
  {
    "name": "Clinica Dental Dr Andres Arias",
    "address_1": "6676+HQQ",
    "address_2": "C. 3",
    "website": "",
    "rating": "",
    "reviews_count": "",
    "thumbnail": "https://lh5.googleusercontent.com/p/AF1QipP8asoDosnb2fwsuJs48dr7szZRyozzel4IaxY",
    "latitude": 10.2139612,
    "longitude": -83.7880123,
    "type": "Dental clinic"
  },
  {
    "name": "Clínica dental Jehová Yireh",
    "address_1": "248 Limón",
    "address_2": "Limón, Roxana",
    "website": "",
    "rating": 5,
    "reviews_count": 1,
    "thumbnail": "https://lh5.googleusercontent.com/p/AF1QipMsWPTJbLaX8o4oDDpCu5H0ciRO3uIelszMzKzX",
    "latitude": 10.2808329,
    "longitude": -83.7241318,
    "type": "Dental clinic"
  },
  {
    "name": "Clínica Studio Visual Guápiles",
    "address_1": "6685+FQP",
    "address_2": "Limón, Guápiles",
    "website": "facebook.com",
    "rating": "4,2",
    "reviews_count": 5,
    "thumbnail": "https://lh5.googleusercontent.com/p/AF1QipPvRTfHjTEsmFqmg9_X1XEMfGMyE67FFtW6rHR4",
    "latitude": 10.2162125,
    "longitude": -83.7905365,
    "type": "Public medical center"
  },
  {
    "name": "Clínica Alfa Dental Astua Pirie",
    "address_1": "25 m Norte y 175 oeste del Súper Aragón. Astua Pirie, que",
    "address_2": "Costa Rica",
    "website": "",
    "rating": "",
    "reviews_count": "",
    "thumbnail": "",
    "latitude": 10.3417432,
    "longitude": -83.7397565,
    "type": "Dental clinic"
  },
  {
    "name": "Clinica Dental Dr. Bismark Herrera Vargas",
    "address_1": "125 Mts Oeste de Musmani.",
    "address_2": "Limón, Guápiles",
    "website": "",
    "rating": 5,
    "reviews_count": 1,
    "thumbnail": "https://lh5.googleusercontent.com/p/AF1QipNFHBBR-aNsziBowNb05Yp1MysdvfgyiBaVlLxS",
    "latitude": 10.216569,
    "longitude": -83.791225,
    "type": "Dental clinic"
  },
  {
    "name": "Clinica Alegra Dental",
    "address_1": "70201 Limón Guápiles",
    "address_2": 70201,
    "website": "",
    "rating": "",
    "reviews_count": "",
    "thumbnail": "",
    "latitude": 10.2136788,
    "longitude": -83.7890894,
    "type": "Dental clinic"
  },
  {
    "name": "Ortocentro",
    "address_1": "70205 Limón",
    "address_2": "Costa Rica",
    "website": "",
    "rating": "",
    "reviews_count": "",
    "thumbnail": "https://lh5.googleusercontent.com/p/AF1QipO8eYK-RYCKHHPwqTgG3uEGXSzwZ-cFC9filR7N",
    "latitude": 10.3609687,
    "longitude": -83.732541,
    "type": "Dental clinic"
  },
  {
    "name": "Clinica Dental Guápiles",
    "address_1": "6668+HQF",
    "address_2": "Barrio Pinares, Limón, Guápiles",
    "website": "clinicadentalguapiles.com",
    "rating": 5,
    "reviews_count": 9,
    "thumbnail": "https://lh5.googleusercontent.com/p/AF1QipO-GNmIdn3xuTo1EoItasevfiO12j6ZMZPwFMTU",
    "latitude": 10.211427,
    "longitude": -83.7830713,
    "type": "Dental clinic"
  },
  {
    "name": "Clínica Dental Dra.Cindy Ramírez",
    "address_1": "C. 3",
    "address_2": "Limón, Guápiles",
    "website": "",
    "rating": 5,
    "reviews_count": 3,
    "thumbnail": "https://lh5.googleusercontent.com/p/AF1QipPyaED_rFGVTYkjRAzeIFFniWzW234vOolGzx1g",
    "latitude": 10.217835,
    "longitude": -83.7877052,
    "type": "Dental clinic"
  },
  {
    "name": "CliniTotal Plaza Médica",
    "address_1": "Costado oeste del INS",
    "address_2": "Limón, Guápiles",
    "website": "",
    "rating": 5,
    "reviews_count": 1,
    "thumbnail": "",
    "latitude": 10.2154923,
    "longitude": -83.7833978,
    "type": "Wellness center"
  },
  {
    "name": "AREA DE SALUD DE CARIARI",
    "address_1": "97J3+5CW",
    "address_2": "Limón, Los Lagos",
    "website": "",
    "rating": "",
    "reviews_count": "",
    "thumbnail": "",
    "latitude": 10.380485,
    "longitude": -83.746413,
    "type": "Community health centre"
  },
  {
    "name": "Clínica Dental Jiménez",
    "address_1": "200 oeste de la Fueza Pública Limón Cariari",
    "address_2": 70205,
    "website": "",
    "rating": "",
    "reviews_count": "",
    "thumbnail": "https://lh5.googleusercontent.com/p/AF1QipPnrtGX7myTVCb8_KiLE2ewulWNASUAqSCGhRmX",
    "latitude": 10.3611424,
    "longitude": -83.7329497,
    "type": "Dental clinic"
  },
  {
    "name": "Clínica dental Adriana Mora",
    "address_1": "Barrio Pinares, Limón, Guápiles",
    "address_2": "Costa Rica",
    "website": "",
    "rating": "",
    "reviews_count": "",
    "thumbnail": "https://lh5.googleusercontent.com/p/AF1QipMcUJviDRHRUmyvdikTF1sv_PGM0MMFQx6qyVoB",
    "latitude": 10.2114286,
    "longitude": -83.7830461,
    "type": "Dental clinic"
  },
  {
    "name": "Clínica Dental Dr James Garita Barboza",
    "address_1": "6674+HPR",
    "address_2": "C. 6",
    "website": "",
    "rating": "",
    "reviews_count": "",
    "thumbnail": "",
    "latitude": 10.2139811,
    "longitude": -83.7932232,
    "type": "Dental clinic"
  },
  {
    "name": "Fisioterapia Dra. Sandra Lorena",
    "address_1": "70205 Cariari, Pococí, Limón Limón Pococí",
    "address_2": 70205,
    "website": "negocio.site",
    "rating": "",
    "reviews_count": "",
    "thumbnail": "",
    "latitude": 10.488088,
    "longitude": -83.6135572,
    "type": "Physical therapy clinic"
  },
  {
    "name": "Nova Dent",
    "address_1": "Barrio Belén, Limón, Guápiles",
    "address_2": "Costa Rica",
    "website": "facebook.com",
    "rating": "",
    "reviews_count": "",
    "thumbnail": "https://lh5.googleusercontent.com/p/AF1QipPrFBWfjsDekfWYIdQwH08VQNSwj_AxqoDY6HZ9",
    "latitude": 10.2153956,
    "longitude": -83.7858843,
    "type": "Dental clinic"
  },
  {
    "name": "Centro de vacunación covid-19 Área de Salud Cariari Pococí",
    "address_1": "Área de Salud Cariari de Pococí Limón Cariari de",
    "address_2": "Pococí",
    "website": "",
    "rating": "",
    "reviews_count": "",
    "thumbnail": "",
    "latitude": 10.3579689,
    "longitude": -83.7355915,
    "type": "Community health centre"
  },
  {
    "name": "Centro Medico Sofia",
    "address_1": "9767+4HJ",
    "address_2": 247,
    "website": "",
    "rating": "",
    "reviews_count": "",
    "thumbnail": "",
    "latitude": 10.3603308,
    "longitude": -83.7361032,
    "type": "Medical Center"
  },
  {
    "name": "Hospital Guápiles",
    "address_1": "Av. 7",
    "address_2": "Limón, Guápiles",
    "website": "ccss.sa.cr",
    "rating": "3,3",
    "reviews_count": 63,
    "thumbnail": "https://lh5.googleusercontent.com/p/AF1QipOVFVDqRRriZnI236gQqCeme8SfskvgC-M413DE",
    "latitude": 10.2174471,
    "longitude": -83.7892796,
    "type": "Hospital"
  },
  {
    "name": "Ebais La Teresa",
    "address_1": "855R+FH7",
    "address_2": "Cam. La Teresa - La Rita",
    "website": "",
    "rating": "",
    "reviews_count": "",
    "thumbnail": "https://lh5.googleusercontent.com/p/AF1QipN4FcCrm9GJhgifsGcc6byMu8YFDKrKjspFaOrE",
    "latitude": 10.30867,
    "longitude": -83.808571,
    "type": "Public medical center"
  },
  {
    "name": "CLÍNICA FISIOTERAPIA MARÍN",
    "address_1": "6646+VRF",
    "address_2": "Limón, Guápiles",
    "website": "",
    "rating": "",
    "reviews_count": "",
    "thumbnail": "https://lh5.googleusercontent.com/p/AF1QipNYKIBHie7JbejiEvXnZgCmHSd6QG2MfzK4eKsc",
    "latitude": 10.207194,
    "longitude": -83.7879512,
    "type": "Physical therapist"
  },
  {
    "name": "Clínica Nova Salud",
    "address_1": "6879+CX3",
    "address_2": "Limón, Guácimo",
    "website": "",
    "rating": 5,
    "reviews_count": 3,
    "thumbnail": "https://lh5.googleusercontent.com/p/AF1QipNyKeA7P5_dntqXOhjraalNPOOhbMKicqeWy63b",
    "latitude": 10.2135058,
    "longitude": -83.6800849,
    "type": "Dental clinic"
  },
  {
    "name": "Clinica Dental Dr Roy Arroyo Yong",
    "address_1": "6869+HX2",
    "address_2": "C. Tres",
    "website": "",
    "rating": "",
    "reviews_count": "",
    "thumbnail": "",
    "latitude": 10.2113961,
    "longitude": -83.6801249,
    "type": "Dental clinic"
  },
  {
    "name": "Clinica Dental Rio Frio",
    "address_1": "75 mts sur del Pali Rio Frio Finca 6, Heredia, Sarapiquí whatsapp",
    "address_2": "Costa Rica",
    "website": "",
    "rating": "4,7",
    "reviews_count": 3,
    "thumbnail": "https://lh5.googleusercontent.com/p/AF1QipNaXsX8uLU9x-jgeNddYL2AFNoHsk7D1rB0rEGp",
    "latitude": 10.3193938,
    "longitude": -83.8868963,
    "type": "Dental clinic"
  }
]