[
  {
    "name": "Hospital Guápiles",
    "address_1": "Av. 7",
    "address_2": "Limón, Guápiles",
    "website": "ccss.sa.cr",
    "rating": 3.3,
    "reviews_count": 63,
    "thumbnail": "https://lh5.googleusercontent.com/p/AF1QipOVFVDqRRriZnI236gQqCeme8SfskvgC-M413DE",
    "latitude": 10.2174471,
    "longitude": -83.7892796,
    "type": "Hospital"
  },
  {
    "name": "Localización del Lote_Hospital_Guápiles",
    "address_1": "6695+4RG",
    "address_2": "C. 2",
    "website": "",
    "rating": "",
    "reviews_count": "",
    "thumbnail": "",
    "latitude": 10.2178224,
    "longitude": -83.7904066,
    "type": "Hospital"
  },
  {
    "name": "Fundacion Vida Salud Guapiles",
    "address_1": "70201 Frente ebais del toro amarillo",
    "address_2": "Limón, Guápiles",
    "website": "",
    "rating": 5,
    "reviews_count": 3,
    "thumbnail": "https://lh5.googleusercontent.com/p/AF1QipNfpeerzlf8NGD_Y2Ul-KeuJ9aA1z2Q4_cyTkE",
    "latitude": 10.2168023,
    "longitude": -83.7907569,
    "type": "Hospital"
  },
  {
    "name": "Ebais Ticaban",
    "address_1": "De la escuela la suerte 1km al sur Limón Pococí",
    "address_2": 12345,
    "website": "",
    "rating": "",
    "reviews_count": "",
    "thumbnail": "",
    "latitude": 10.4213775,
    "longitude": -83.7211889,
    "type": "Hospital"
  },
  {
    "name": "Monserrat",
    "address_1": "9768+288",
    "address_2": 247,
    "website": "",
    "rating": "",
    "reviews_count": "",
    "thumbnail": "",
    "latitude": 10.3600402,
    "longitude": -83.7341817,
    "type": "Hospital"
  },
  {
    "name": "Ebais San Antonio",
    "address_1": 248,
    "address_2": "Limón, Roxana",
    "website": "ccss.sa.cr",
    "rating": 4,
    "reviews_count": 2,
    "thumbnail": "https://lh5.googleusercontent.com/p/AF1QipNAUHjNJ7sYxnveNnl0pyrJTtKnZYF57UX4usS0",
    "latitude": 10.2838919,
    "longitude": -83.7209827,
    "type": "Medical Center"
  },
  {
    "name": "EBAIS de Najera",
    "address_1": "869Q+F65",
    "address_2": "Limón, Pococí",
    "website": "",
    "rating": 3.5,
    "reviews_count": 2,
    "thumbnail": "https://lh5.googleusercontent.com/p/AF1QipOP9B_nXu-jowutj3t0oPSiztOe7pFXOVJqZPU7",
    "latitude": 10.3186382,
    "longitude": -83.7618934,
    "type": "Hospital"
  },
  {
    "name": "Clínica Nuestra Señora",
    "address_1": "100 metros oeste del Hospital de Guapiles",
    "address_2": "Limón, Guápiles",
    "website": "clinicans.com",
    "rating": 3,
    "reviews_count": 6,
    "thumbnail": "https://lh5.googleusercontent.com/p/AF1QipMQlYQzGTnIUNvJB_cQ6ElFU8WQ227IJd_FOW6H",
    "latitude": 10.2165428,
    "longitude": -83.7908249,
    "type": "Medical Center"
  },
  {
    "name": "Ebais Ticaban",
    "address_1": "C539+4VQ",
    "address_2": "Ticabán, Limón Province, Pococí",
    "website": "",
    "rating": 3.5,
    "reviews_count": 6,
    "thumbnail": "https://lh5.googleusercontent.com/p/AF1QipORkQ-mARxtCbEexi12tiwPd1fYd0IrDI7MiCfu",
    "latitude": 10.4028343,
    "longitude": -83.8302811,
    "type": "Hospital"
  },
  {
    "name": "Clínica DS",
    "address_1": "9757+3RH",
    "address_2": "El Colono",
    "website": "",
    "rating": 5,
    "reviews_count": 1,
    "thumbnail": "",
    "latitude": 10.3575732,
    "longitude": -83.7355214,
    "type": "Hospital"
  },
  {
    "name": "CUIDAD DE REFUGIO CENTRO DE REHABILITACIÓN",
    "address_1": "6742+RXP",
    "address_2": "C. Diez",
    "website": "",
    "rating": "",
    "reviews_count": "",
    "thumbnail": "https://lh5.googleusercontent.com/p/AF1QipPN4vhHPv2G-OC5UvJSTTmF_HowiWCq7xRe6GhO",
    "latitude": 10.2070836,
    "longitude": -83.7475602,
    "type": "Hospital"
  },
  {
    "name": "Vacunación COVID-19 - Hospital Guápiles",
    "address_1": "6696+27Q",
    "address_2": "Av. 7",
    "website": "ccss.sa.cr",
    "rating": "",
    "reviews_count": "",
    "thumbnail": "",
    "latitude": 10.217584,
    "longitude": -83.789258,
    "type": "Medical laboratory"
  },
  {
    "name": "Centro Médico Kerigma",
    "address_1": "6685+JGF",
    "address_2": "Av. 7",
    "website": "kerygmaclinica.com",
    "rating": 5,
    "reviews_count": 2,
    "thumbnail": "https://lh5.googleusercontent.com/p/AF1QipOD951UTFcWevHzoP8gpaJfKnq40iR-xlsVHkU5",
    "latitude": 10.2165563,
    "longitude": -83.7912115,
    "type": "Hospital"
  },
  {
    "name": "Clínica Atlántica",
    "address_1": "6675+PHF",
    "address_2": "Limón Province, Guapiles",
    "website": "clinicaatlanticacr.com",
    "rating": 3.1,
    "reviews_count": 21,
    "thumbnail": "https://lh5.googleusercontent.com/p/AF1QipPJDlrUfpoas9iwn0skWX191hHWDRtFbeZAo8Hp",
    "latitude": 10.2143883,
    "longitude": -83.7911455,
    "type": "Medical Center"
  },
  {
    "name": "EBAIS de La Unión",
    "address_1": "648G+PW4",
    "address_2": "Limón, Guápiles",
    "website": "",
    "rating": "",
    "reviews_count": "",
    "thumbnail": "https://lh5.googleusercontent.com/p/AF1QipMR5hGNjmxUNw40_OIjc54LLKhn23CnRIAYFZlu",
    "latitude": 10.2167622,
    "longitude": -83.8726652,
    "type": "Hospital"
  },
  {
    "name": "Clinica Santa Fe",
    "address_1": "Del Hospital de Guápiles, 100 metros Oeste y 25 metros Norte",
    "address_2": "Limón Province, Guapiles",
    "website": "",
    "rating": 4.5,
    "reviews_count": 8,
    "thumbnail": "https://lh5.googleusercontent.com/p/AF1QipNwqP1h_J6wFGdWDcGTNCa56QvT61FaAY2MJArd",
    "latitude": 10.2168745,
    "longitude": -83.7905456,
    "type": "Medical clinic"
  },
  {
    "name": "Dr. Tony Facio Castro Hospital",
    "address_1": "Hospital, Limón Province, Limon",
    "address_2": "Costa Rica",
    "website": "",
    "rating": 3.5,
    "reviews_count": 62,
    "thumbnail": "https://lh5.googleusercontent.com/p/AF1QipNwOToL4MS3_yKgLq-TLSrE-oqalB3sMfJFJwzR",
    "latitude": 9.9996621,
    "longitude": -83.0259991,
    "type": "Hospital"
  },
  {
    "name": "Ebais Cariari II",
    "address_1": "9757+5QM",
    "address_2": "Limón, Roxana",
    "website": "ccss.sa.cr",
    "rating": "",
    "reviews_count": "",
    "thumbnail": "https://lh5.googleusercontent.com/p/AF1QipO-V_fZy_Tyyl-5gsx4ORcR64GCpwLDRiq0tcZA",
    "latitude": 10.3579596,
    "longitude": -83.7355696,
    "type": "Hospital"
  },
  {
    "name": "Ebais Nazareth",
    "address_1": "86MQ+J53",
    "address_2": "Limón, Roxana",
    "website": "",
    "rating": "",
    "reviews_count": "",
    "thumbnail": "https://lh5.googleusercontent.com/p/AF1QipMeBs44-7EzMWxU82xx6igrypuitNqy2D1Sqdm1",
    "latitude": 10.3340051,
    "longitude": -83.7620711,
    "type": "Hospital"
  },
  {
    "name": "Clínica Caribe",
    "address_1": "6685+FJH",
    "address_2": "Limón, Guápiles",
    "website": "",
    "rating": 4.2,
    "reviews_count": 11,
    "thumbnail": "https://lh5.googleusercontent.com/p/AF1QipMJGc0nuHjoYJYtSrIqclhEV4_zDEgu6JwkGeJZ",
    "latitude": 10.2161945,
    "longitude": -83.7908914,
    "type": "Medical Center"
  },
  {
    "name": "EBAIS Astua Pirie, CCSS",
    "address_1": "87P6+3QX",
    "address_2": "Unnamed Road",
    "website": "",
    "rating": 2.5,
    "reviews_count": 2,
    "thumbnail": "https://lh5.googleusercontent.com/p/AF1QipMnhoV-86W2gCIECSNYXHHXviH4g_OubEu1Je8r",
    "latitude": 10.335228,
    "longitude": -83.7380253,
    "type": "Hospital"
  },
  {
    "name": "Clinica de Batán",
    "address_1": "Clínica CCSS Batán",
    "address_2": "Unnamed Road",
    "website": "",
    "rating": 3.6,
    "reviews_count": 7,
    "thumbnail": "",
    "latitude": 10.0887494,
    "longitude": -83.3410715,
    "type": "Hospital"
  },
  {
    "name": "Bellavista CER Adicciones",
    "address_1": "558X+9FR",
    "address_2": "Limón, Guápiles",
    "website": "",
    "rating": "",
    "reviews_count": "",
    "thumbnail": "https://lh5.googleusercontent.com/p/AF1QipPl3uy2HNOLFlVwpEIq125LWG5LBP785RGSW4xO",
    "latitude": 10.1659816,
    "longitude": -83.8013734,
    "type": "Specialized hospital"
  },
  {
    "name": "CAID IAFA GUÁPILES",
    "address_1": 149,
    "address_2": "Limón, Guápiles",
    "website": "",
    "rating": "",
    "reviews_count": "",
    "thumbnail": "",
    "latitude": 10.2113914,
    "longitude": -83.7890507,
    "type": "Medical Center"
  },
  {
    "name": "Clínica Asembis Guápiles",
    "address_1": "De la estación de bomberos, 300 mts. Oeste",
    "address_2": "Limón, Guápiles",
    "website": "asembis.org",
    "rating": 3.9,
    "reviews_count": 30,
    "thumbnail": "https://lh5.googleusercontent.com/p/AF1QipOnTUCdo_I0Zx4K-dziMK3ft9JB_48ZIDsqDUgG",
    "latitude": 10.2160987,
    "longitude": -83.7930749,
    "type": "Medical clinic"
  },
  {
    "name": "EBAIS CCSS La Colonia",
    "address_1": "65WW+3JX",
    "address_2": "Limón Province, Guapiles",
    "website": "",
    "rating": 2,
    "reviews_count": 4,
    "thumbnail": "https://lh5.googleusercontent.com/p/AF1QipPoEqhP1cmR7pXWJ_9hPZM_N605nyg6itS8Bmxe",
    "latitude": 10.2452483,
    "longitude": -83.803401,
    "type": "Hospital"
  },
  {
    "name": "Clínica Santa Mónica",
    "address_1": "6686+G25",
    "address_2": "Limón, Guápiles",
    "website": "",
    "rating": "",
    "reviews_count": "",
    "thumbnail": "",
    "latitude": 10.2162728,
    "longitude": -83.7899013,
    "type": "Public medical center"
  },
  {
    "name": "Centro Medico Sofia",
    "address_1": "9767+4HJ",
    "address_2": 247,
    "website": "",
    "rating": "",
    "reviews_count": "",
    "thumbnail": "",
    "latitude": 10.3603308,
    "longitude": -83.7361032,
    "type": "Medical Center"
  },
  {
    "name": "Ebais Los Angeles",
    "address_1": "Limón, Los Angeles de Cariari",
    "address_2": "Costa Rica",
    "website": "ccss.sa.cr",
    "rating": "",
    "reviews_count": "",
    "thumbnail": "https://lh5.googleusercontent.com/p/AF1QipOJ6z2PyXmIWf_i2iUJEtme4IgfIpsz2RKOsnpa",
    "latitude": 10.4105238,
    "longitude": -83.7151254,
    "type": "Hospital"
  },
  {
    "name": "EBAIS Campo Cinco",
    "address_1": "97MM+G7G",
    "address_2": "Limón Province, Roxana",
    "website": "",
    "rating": 4,
    "reviews_count": 2,
    "thumbnail": "https://lh5.googleusercontent.com/p/AF1QipMoLAgigzbcDyKy_ju4zmn0eudM2iyP27eFsIc7",
    "latitude": 10.3838066,
    "longitude": -83.7167917,
    "type": "Medical Center"
  },
  {
    "name": "Clínica Armonía",
    "address_1": "110 metros oeste del Hospital de",
    "address_2": "Limón, Guápiles",
    "website": "clinicaarmonia.negocio.site",
    "rating": "",
    "reviews_count": "",
    "thumbnail": "",
    "latitude": 10.2165339,
    "longitude": -83.7911279,
    "type": "Specialized clinic"
  },
  {
    "name": "Centro Médico Dr. Allan León",
    "address_1": "Cariari,Limón Limón",
    "address_2": "Pococí",
    "website": "facebook.com",
    "rating": 5,
    "reviews_count": 4,
    "thumbnail": "https://lh5.googleusercontent.com/p/AF1QipMW0smCUvJu1WVAkenl4ipOwT0QNIa89oS5j3M5",
    "latitude": 10.3597007,
    "longitude": -83.7362979,
    "type": "Medical Center"
  },
  {
    "name": "PUESTO DE VISITA MEDICA SAN GERARDO",
    "address_1": "8F83+W4M",
    "address_2": "Limón, Asentamiento Línea Vieja",
    "website": "",
    "rating": "",
    "reviews_count": "",
    "thumbnail": "",
    "latitude": 10.3173325,
    "longitude": -83.5472167,
    "type": "Medical Center"
  },
  {
    "name": "EBAIS DE ESPAVEL ABAJO",
    "address_1": "3HHW+7X6",
    "address_2": "Limón, Las Vegas",
    "website": "",
    "rating": 5,
    "reviews_count": 1,
    "thumbnail": "https://lh5.googleusercontent.com/p/AF1QipNclIvgoIlwepw8buYL36E5zZBqDSyAVTYSRqBc",
    "latitude": 10.0781725,
    "longitude": -83.4026167,
    "type": "Hospital"
  },
  {
    "name": "Emergencias",
    "address_1": "6686+QG5",
    "address_2": "Hospital de Guápiles, Ambulancias",
    "website": "",
    "rating": "",
    "reviews_count": "",
    "thumbnail": "https://lh5.googleusercontent.com/p/AF1QipMOUwHSczyC4Dl6DO400KUyuL2iXZLlKvRAKiTz",
    "latitude": 10.2168901,
    "longitude": -83.7886369,
    "type": "Ambulance service"
  },
  {
    "name": "Clinica Dental Dent",
    "address_1": "6667+66G",
    "address_2": "Limón, Guápiles",
    "website": "",
    "rating": "",
    "reviews_count": "",
    "thumbnail": "",
    "latitude": 10.2105513,
    "longitude": -83.7869374,
    "type": "Hospital"
  },
  {
    "name": "Ebais de Germania",
    "address_1": "4CWH+RJV",
    "address_2": "EBAIS de Germania, Limón",
    "website": "",
    "rating": "",
    "reviews_count": "",
    "thumbnail": "",
    "latitude": 10.147102,
    "longitude": -83.5709492,
    "type": "Hospital"
  },
  {
    "name": "EBAIS B. Colorado, CCSS",
    "address_1": "QC97+WF4",
    "address_2": "Barra del Colorado Sur, Limón, Pococí",
    "website": "",
    "rating": "",
    "reviews_count": "",
    "thumbnail": "",
    "latitude": 10.769761,
    "longitude": -83.5863018,
    "type": "Hospital"
  },
  {
    "name": "Equipo Medico Montes de Oca EMMO",
    "address_1": "6686+F5P",
    "address_2": "Plaza Quizatlan Frente al Hospital",
    "website": "grupomo.com",
    "rating": "",
    "reviews_count": "",
    "thumbnail": "https://lh5.googleusercontent.com/p/AF1QipPLGOSTli9WofDHDP5VXiE6AV7gZE23rlHj8jU",
    "latitude": 10.2161875,
    "longitude": -83.7895625,
    "type": "Medical supply store"
  },
  {
    "name": "Ebais Limbo",
    "address_1": "88GW+6M6",
    "address_2": "Limón",
    "website": "",
    "rating": 4.3,
    "reviews_count": 3,
    "thumbnail": "https://lh5.googleusercontent.com/p/AF1QipNrkD2KMI61rdaMaqPEQ-gnCe4LIq379RA8aT1l",
    "latitude": 10.3255392,
    "longitude": -83.6533725,
    "type": "Hospital"
  },
  {
    "name": "Clinica ASOMED",
    "address_1": "Av 11, Guápiles, de Subway 100 norte y 25 oeste frente al CECUDI",
    "address_2": "Av. 11",
    "website": "",
    "rating": 4.6,
    "reviews_count": 5,
    "thumbnail": "",
    "latitude": 10.2179589,
    "longitude": -83.7909883,
    "type": "Medical clinic"
  },
  {
    "name": "AREA DE SALUD DE CARIARI",
    "address_1": "97J3+5CW",
    "address_2": "Limón, Los Lagos",
    "website": "",
    "rating": "",
    "reviews_count": "",
    "thumbnail": "",
    "latitude": 10.380485,
    "longitude": -83.746413,
    "type": "Community health centre"
  },
  {
    "name": "Área de Salud",
    "address_1": "6636+FJJ",
    "address_2": "Limón, Guápiles",
    "website": "",
    "rating": 3.3,
    "reviews_count": 8,
    "thumbnail": "https://lh5.googleusercontent.com/p/AF1QipNfdhfSXm6ssiRz5X3Lw4HXfUCnFlvQotSkJgiB",
    "latitude": 10.203705,
    "longitude": -83.7884918,
    "type": "Health"
  },
  {
    "name": "Ebais Jardin",
    "address_1": "96W7+463",
    "address_2": "Limón, Rita",
    "website": "ccss.sa.cr",
    "rating": "",
    "reviews_count": "",
    "thumbnail": "",
    "latitude": 10.3952693,
    "longitude": -83.7869396,
    "type": "Hospital"
  },
  {
    "name": "Kerygma Clínica y Laboratorio",
    "address_1": "Avenida 7 125m oeste del Hospital de",
    "address_2": "Limón, Guápiles",
    "website": "kerygmaclinica.com",
    "rating": 4.8,
    "reviews_count": 11,
    "thumbnail": "https://lh5.googleusercontent.com/p/AF1QipNOqgb6ku-U8DE4S8oa2RyX552bnVcnJ5b4bnM4",
    "latitude": 10.216531,
    "longitude": -83.7911037,
    "type": "Doctor"
  },
  {
    "name": "Consultorio Médico y Dental Drs. Araya",
    "address_1": "75 metros este del Pali Cariari, Pococi, Limón., 1000 Guápiles, Limon, Costa Rica",
    "address_2": 247,
    "website": "",
    "rating": 5,
    "reviews_count": 2,
    "thumbnail": "",
    "latitude": 10.3592239,
    "longitude": -83.7355265,
    "type": "Medical Center"
  },
  {
    "name": "Consultorio Vida",
    "address_1": "XVWH+3W6",
    "address_2": "C. 8",
    "website": "",
    "rating": "",
    "reviews_count": "",
    "thumbnail": "",
    "latitude": 9.9951617,
    "longitude": -84.1202364,
    "type": "Private hospital"
  },
  {
    "name": "Ebais Espavel Arriba",
    "address_1": "2HQQ+F7R",
    "address_2": "Unnamed Road, Provincia de",
    "website": "",
    "rating": "",
    "reviews_count": "",
    "thumbnail": "",
    "latitude": 10.0387402,
    "longitude": -83.4118643,
    "type": "Hospital"
  },
  {
    "name": "EBAIS Lagos, C.C.S.SM",
    "address_1": "XVFM+G7W",
    "address_2": "Los Lagos, Limon, Heredia",
    "website": "",
    "rating": 2.8,
    "reviews_count": 6,
    "thumbnail": "",
    "latitude": 9.9738593,
    "longitude": -84.1167841,
    "type": "Hospital"
  },
  {
    "name": "Clinic Guácimo",
    "address_1": "6879+CQ4",
    "address_2": "Limón Province, Guacimo",
    "website": "ccss.sa.cr",
    "rating": 3.4,
    "reviews_count": 18,
    "thumbnail": "https://lh5.googleusercontent.com/p/AF1QipOcwYvEDRtPobfk3jJHNom73ljKU_1r9FJurmOO",
    "latitude": 10.2135002,
    "longitude": -83.6805458,
    "type": "Medical Center"
  },
  {
    "name": "Centro de Atención Integral en Salud Siquirres",
    "address_1": "4F3H+J24",
    "address_2": 806,
    "website": "ccss.sa.cr",
    "rating": 4.2,
    "reviews_count": 46,
    "thumbnail": "https://lh5.googleusercontent.com/p/AF1QipMpVxxBi_gwQsc3wJKVQ0Cjn6fqn2gtHhNsOM0w",
    "latitude": 10.1040148,
    "longitude": -83.522433,
    "type": "Hospital"
  },
  {
    "name": "E.B.A.I.S San Luis",
    "address_1": "68WQ+9J2",
    "address_2": "Limón, Guácimo",
    "website": "",
    "rating": 3.5,
    "reviews_count": 2,
    "thumbnail": "",
    "latitude": 10.2458835,
    "longitude": -83.6609704,
    "type": "Hospital"
  },
  {
    "name": "EBAIS DE BETANIA",
    "address_1": "3GW5+XG8",
    "address_2": "Tobias Baglio",
    "website": "",
    "rating": 5,
    "reviews_count": 1,
    "thumbnail": "",
    "latitude": 10.0974244,
    "longitude": -83.4911776,
    "type": "Hospital"
  },
  {
    "name": "Iglesia Catolica Santa María",
    "address_1": "7C94+9H3",
    "address_2": "Limón",
    "website": "",
    "rating": "",
    "reviews_count": "",
    "thumbnail": "",
    "latitude": 10.2683973,
    "longitude": -83.5935716,
    "type": "Hospital"
  },
  {
    "name": "Panaderia Samuel",
    "address_1": "Hospital de guapiles 150oeste, Limón",
    "address_2": "Guápiles",
    "website": "",
    "rating": 2,
    "reviews_count": 1,
    "thumbnail": "",
    "latitude": 10.2160556,
    "longitude": -83.7908636,
    "type": "Bakery"
  },
  {
    "name": "CAJA COSTARICENSE DE SEGURO SOCIAL",
    "address_1": "6G2C+82F",
    "address_2": "Limón, Carmen",
    "website": "",
    "rating": 5,
    "reviews_count": 1,
    "thumbnail": "https://lh5.googleusercontent.com/p/AF1QipMgVrIg2E2k7s4SXlALFebNK-eS5wBVZBqrwt6J",
    "latitude": 10.2008204,
    "longitude": -83.4799579,
    "type": "Hospital"
  },
  {
    "name": "Centro De Salud.",
    "address_1": "2M8R+C39",
    "address_2": "Limón, Bristol",
    "website": "",
    "rating": "",
    "reviews_count": "",
    "thumbnail": "",
    "latitude": 10.0160277,
    "longitude": -83.3097753,
    "type": "Hospital"
  },
  {
    "name": "EBAIS B-Line",
    "address_1": "2MVQ+H9V",
    "address_2": "Limón, B-Line",
    "website": "",
    "rating": 2,
    "reviews_count": 1,
    "thumbnail": "",
    "latitude": 10.0439955,
    "longitude": -83.3115774,
    "type": "Hospital"
  },
  {
    "name": "Ebais Rio Jimenez",
    "address_1": "69WW+GF7",
    "address_2": "Limón Province, Río Jiménez",
    "website": "",
    "rating": "",
    "reviews_count": "",
    "thumbnail": "",
    "latitude": 10.2462971,
    "longitude": -83.6038406,
    "type": "Hospital"
  },
  {
    "name": "Molino La MilpaGraw",
    "address_1": "Cuadrante, 375 metros oeste Hospital Guapiles, Calle los Mangos, Barrio el",
    "address_2": "Guápiles",
    "website": "",
    "rating": 4.7,
    "reviews_count": 3,
    "thumbnail": "",
    "latitude": 10.2166221,
    "longitude": -83.7924377,
    "type": "Restaurant"
  },
  {
    "name": "Medical Plaza Florence",
    "address_1": "XVVG+9V3",
    "address_2": "Del antiguo Hospital de Heredia 300 metros sur y 25 oeste. Edificio Plaza Florense, Av 14",
    "website": "",
    "rating": 4,
    "reviews_count": 1,
    "thumbnail": "https://lh5.googleusercontent.com/p/AF1QipOovAjWIPvoHy2gCp-C0I-4Pla8fa0PdvkIhaLU",
    "latitude": 9.993387,
    "longitude": -84.1228858,
    "type": "Medical Center"
  },
  {
    "name": "Centro Radiológico Pococí",
    "address_1": "6688+4GM",
    "address_2": "Costado Oeste del I.N.S de",
    "website": "",
    "rating": "",
    "reviews_count": "",
    "thumbnail": "",
    "latitude": 10.2153367,
    "longitude": -83.783693,
    "type": "Doctor"
  },
  {
    "name": "Capilla",
    "address_1": "6686+V9H",
    "address_2": "Hospital de Guápiles, Ambulancias",
    "website": "",
    "rating": 5,
    "reviews_count": 2,
    "thumbnail": "",
    "latitude": 10.2171977,
    "longitude": -83.7890205,
    "type": "Catholic church"
  },
  {
    "name": "Clinica Sophia",
    "address_1": "6685+CM6",
    "address_2": "Blvr. de Guápiles",
    "website": "",
    "rating": 4.3,
    "reviews_count": 3,
    "thumbnail": "https://lh5.googleusercontent.com/p/AF1QipN_O4UHN1Qaj_U1ZH7UQpekwRX54oQGV7WqSokX",
    "latitude": 10.2160353,
    "longitude": -83.7908453,
    "type": "Doctor"
  },
  {
    "name": "CAPEMCOL",
    "address_1": "XV5M+387",
    "address_2": "Zona Industrial, San José Province, San José",
    "website": "",
    "rating": 4.8,
    "reviews_count": 5,
    "thumbnail": "https://lh5.googleusercontent.com/p/AF1QipNOfH-DCAE7psXKfNfPXvopSoishLv8w-oOgQjm",
    "latitude": 9.9576733,
    "longitude": -84.1166885,
    "type": "Hospital"
  },
  {
    "name": "UDCRR",
    "address_1": "XVRH+H89",
    "address_2": "Heredia",
    "website": "",
    "rating": "",
    "reviews_count": "",
    "thumbnail": "",
    "latitude": 9.9914061,
    "longitude": -84.1216279,
    "type": "Hospital"
  },
  {
    "name": "Centro de Especialidades Médicas La Inmaculada",
    "address_1": "XVWH+3WM",
    "address_2": "C. 8",
    "website": "",
    "rating": 4,
    "reviews_count": 3,
    "thumbnail": "",
    "latitude": 9.9952059,
    "longitude": -84.1201982,
    "type": "Medical Center"
  },
  {
    "name": "Subway",
    "address_1": "Del hospital de Guápiles, 100 metros al oeste, frente a la Farmacia Caribe",
    "address_2": "Limón Province",
    "website": "restaurantes.subway.com",
    "rating": 4.4,
    "reviews_count": 698,
    "thumbnail": "https://lh5.googleusercontent.com/p/AF1QipM693T8t1h_Ntg2ID5vlBcRW6eJZCS3ehPzXtxa",
    "latitude": 10.2162189,
    "longitude": -83.7905905,
    "type": "Fast food restaurant"
  }
]