[
  {
    "name": "Localización del Lote_Hospital_Guápiles",
    "address_1": "6695+4RG",
    "address_2": "C. 2",
    "website": "",
    "rating": "",
    "reviews_count": "",
    "thumbnail": "",
    "latitude": 10.2178224,
    "longitude": -83.7904066,
    "type": "Hospital"
  },
  {
    "name": "Hospital Guápiles",
    "address_1": "Av. 7",
    "address_2": "Limón, Guápiles",
    "website": "ccss.sa.cr",
    "rating": 3.3,
    "reviews_count": 63,
    "thumbnail": "https://lh5.googleusercontent.com/p/AF1QipOVFVDqRRriZnI236gQqCeme8SfskvgC-M413DE",
    "latitude": 10.2174471,
    "longitude": -83.7892796,
    "type": "Hospital"
  },
  {
    "name": "Monserrat",
    "address_1": "9768+288",
    "address_2": 247,
    "website": "",
    "rating": "",
    "reviews_count": "",
    "thumbnail": "",
    "latitude": 10.3600402,
    "longitude": -83.7341817,
    "type": "Hospital"
  },
  {
    "name": "Ebais Ticaban",
    "address_1": "De la escuela la suerte 1km al sur Limón Pococí",
    "address_2": 12345,
    "website": "",
    "rating": "",
    "reviews_count": "",
    "thumbnail": "",
    "latitude": 10.4213775,
    "longitude": -83.7211889,
    "type": "Hospital"
  },
  {
    "name": "Ebais Ticaban",
    "address_1": "C539+4VQ",
    "address_2": "Ticabán, Limón Province, Pococí",
    "website": "",
    "rating": 3.5,
    "reviews_count": 6,
    "thumbnail": "https://lh5.googleusercontent.com/p/AF1QipORkQ-mARxtCbEexi12tiwPd1fYd0IrDI7MiCfu",
    "latitude": 10.4028343,
    "longitude": -83.8302811,
    "type": "Hospital"
  },
  {
    "name": "CUIDAD DE REFUGIO CENTRO DE REHABILITACIÓN",
    "address_1": "6742+RXP",
    "address_2": "C. Diez",
    "website": "",
    "rating": "",
    "reviews_count": "",
    "thumbnail": "https://lh5.googleusercontent.com/p/AF1QipPN4vhHPv2G-OC5UvJSTTmF_HowiWCq7xRe6GhO",
    "latitude": 10.2070836,
    "longitude": -83.7475602,
    "type": "Hospital"
  },
  {
    "name": "EBAIS de Najera",
    "address_1": "869Q+F65",
    "address_2": "Limón, Pococí",
    "website": "",
    "rating": 3.5,
    "reviews_count": 2,
    "thumbnail": "https://lh5.googleusercontent.com/p/AF1QipOP9B_nXu-jowutj3t0oPSiztOe7pFXOVJqZPU7",
    "latitude": 10.3186382,
    "longitude": -83.7618934,
    "type": "Hospital"
  },
  {
    "name": "Fundacion Vida Salud Cariari",
    "address_1": "Frente la terminal de autobuses Cariari San José Limón",
    "address_2": "Pococí",
    "website": "",
    "rating": 5,
    "reviews_count": 1,
    "thumbnail": "https://lh5.googleusercontent.com/p/AF1QipN-T2igQc_UttI2hQgUK923PreOQAew5F-Ez9Q",
    "latitude": 10.3575999,
    "longitude": -83.7355089,
    "type": "Hospital"
  },
  {
    "name": "EBAIS Astua Pirie, CCSS",
    "address_1": "87P6+3QX",
    "address_2": "Unnamed Road",
    "website": "",
    "rating": 2.5,
    "reviews_count": 2,
    "thumbnail": "https://lh5.googleusercontent.com/p/AF1QipMnhoV-86W2gCIECSNYXHHXviH4g_OubEu1Je8r",
    "latitude": 10.335228,
    "longitude": -83.7380253,
    "type": "Hospital"
  },
  {
    "name": "Clínica Nuestra Señora",
    "address_1": "100 metros oeste del Hospital de Guapiles",
    "address_2": "Limón, Guápiles",
    "website": "clinicans.com",
    "rating": 3,
    "reviews_count": 6,
    "thumbnail": "https://lh5.googleusercontent.com/p/AF1QipNO34QXQb6CiY_I_5JXkaydU8sSt37d7WSnu6gu",
    "latitude": 10.2165428,
    "longitude": -83.7908249,
    "type": "Medical Center"
  },
  {
    "name": "Clínica Atlántica",
    "address_1": "6675+PHF",
    "address_2": "Limón Province, Guapiles",
    "website": "clinicaatlanticacr.com",
    "rating": 3.1,
    "reviews_count": 21,
    "thumbnail": "https://lh5.googleusercontent.com/p/AF1QipPJDlrUfpoas9iwn0skWX191hHWDRtFbeZAo8Hp",
    "latitude": 10.2143883,
    "longitude": -83.7911455,
    "type": "Medical Center"
  },
  {
    "name": "Bellavista CER Adicciones",
    "address_1": "558X+9FR",
    "address_2": "Limón, Guápiles",
    "website": "",
    "rating": "",
    "reviews_count": "",
    "thumbnail": "https://lh5.googleusercontent.com/p/AF1QipPl3uy2HNOLFlVwpEIq125LWG5LBP785RGSW4xO",
    "latitude": 10.1659816,
    "longitude": -83.8013734,
    "type": "Specialized hospital"
  },
  {
    "name": "Centro Médico Kerigma",
    "address_1": "6685+JGF",
    "address_2": "Av. 7",
    "website": "kerygmaclinica.com",
    "rating": 5,
    "reviews_count": 2,
    "thumbnail": "https://lh5.googleusercontent.com/p/AF1QipOD951UTFcWevHzoP8gpaJfKnq40iR-xlsVHkU5",
    "latitude": 10.2165563,
    "longitude": -83.7912115,
    "type": "Hospital"
  },
  {
    "name": "Ebais Cariari II",
    "address_1": "9757+5QM",
    "address_2": "Limón, Roxana",
    "website": "ccss.sa.cr",
    "rating": "",
    "reviews_count": "",
    "thumbnail": "https://lh5.googleusercontent.com/p/AF1QipOi7i5X2KCThf6HgiHk-9DvL4osw6Lq17XFoVUz",
    "latitude": 10.3579596,
    "longitude": -83.7355696,
    "type": "Hospital"
  },
  {
    "name": "EBAIS de La Unión",
    "address_1": "648G+PW4",
    "address_2": "Limón, Guápiles",
    "website": "",
    "rating": "",
    "reviews_count": "",
    "thumbnail": "https://lh5.googleusercontent.com/p/AF1QipMR5hGNjmxUNw40_OIjc54LLKhn23CnRIAYFZlu",
    "latitude": 10.2167622,
    "longitude": -83.8726652,
    "type": "Hospital"
  },
  {
    "name": "Ebais Nazareth",
    "address_1": "86MQ+J53",
    "address_2": "Limón, Roxana",
    "website": "",
    "rating": "",
    "reviews_count": "",
    "thumbnail": "https://lh5.googleusercontent.com/p/AF1QipMeBs44-7EzMWxU82xx6igrypuitNqy2D1Sqdm1",
    "latitude": 10.3340051,
    "longitude": -83.7620711,
    "type": "Hospital"
  },
  {
    "name": "Clinica Santa Fe",
    "address_1": "Del Hospital de Guápiles, 100 metros Oeste y 25 metros Norte",
    "address_2": "Limón Province, Guapiles",
    "website": "",
    "rating": 4.5,
    "reviews_count": 8,
    "thumbnail": "https://lh5.googleusercontent.com/p/AF1QipNwqP1h_J6wFGdWDcGTNCa56QvT61FaAY2MJArd",
    "latitude": 10.2168745,
    "longitude": -83.7905456,
    "type": "Medical clinic"
  },
  {
    "name": "Clínica Caribe",
    "address_1": "6685+FJH",
    "address_2": "Limón, Guápiles",
    "website": "",
    "rating": 4.2,
    "reviews_count": 11,
    "thumbnail": "https://lh5.googleusercontent.com/p/AF1QipMJGc0nuHjoYJYtSrIqclhEV4_zDEgu6JwkGeJZ",
    "latitude": 10.2161945,
    "longitude": -83.7908914,
    "type": "Medical Center"
  },
  {
    "name": "Ebais Los Angeles",
    "address_1": "Limón, Los Angeles de Cariari",
    "address_2": "Costa Rica",
    "website": "ccss.sa.cr",
    "rating": "",
    "reviews_count": "",
    "thumbnail": "https://lh5.googleusercontent.com/p/AF1QipOJ6z2PyXmIWf_i2iUJEtme4IgfIpsz2RKOsnpa",
    "latitude": 10.4105238,
    "longitude": -83.7151254,
    "type": "Hospital"
  },
  {
    "name": "EBAIS B. Colorado, CCSS",
    "address_1": "QC97+WF4",
    "address_2": "Barra del Colorado Sur, Limón, Pococí",
    "website": "",
    "rating": "",
    "reviews_count": "",
    "thumbnail": "",
    "latitude": 10.769761,
    "longitude": -83.5863018,
    "type": "Hospital"
  },
  {
    "name": "Centro Medico Sofia",
    "address_1": "9767+4HJ",
    "address_2": 247,
    "website": "",
    "rating": "",
    "reviews_count": "",
    "thumbnail": "",
    "latitude": 10.3603308,
    "longitude": -83.7361032,
    "type": "Medical Center"
  },
  {
    "name": "CAID IAFA GUÁPILES",
    "address_1": 149,
    "address_2": "Limón, Guápiles",
    "website": "",
    "rating": "",
    "reviews_count": "",
    "thumbnail": "",
    "latitude": 10.2113914,
    "longitude": -83.7890507,
    "type": "Medical Center"
  },
  {
    "name": "EBAIS Campo Cinco",
    "address_1": "97MM+G7G",
    "address_2": "Limón Province, Roxana",
    "website": "",
    "rating": 4,
    "reviews_count": 2,
    "thumbnail": "https://lh5.googleusercontent.com/p/AF1QipMoLAgigzbcDyKy_ju4zmn0eudM2iyP27eFsIc7",
    "latitude": 10.3838066,
    "longitude": -83.7167917,
    "type": "Medical Center"
  },
  {
    "name": "Ebais Jardin",
    "address_1": "96W7+463",
    "address_2": "Limón, Rita",
    "website": "ccss.sa.cr",
    "rating": "",
    "reviews_count": "",
    "thumbnail": "",
    "latitude": 10.3952693,
    "longitude": -83.7869396,
    "type": "Hospital"
  },
  {
    "name": "Centro Médico Dr. Allan León",
    "address_1": "Cariari,Limón Limón",
    "address_2": "Pococí",
    "website": "facebook.com",
    "rating": 5,
    "reviews_count": 4,
    "thumbnail": "https://lh5.googleusercontent.com/p/AF1QipMW0smCUvJu1WVAkenl4ipOwT0QNIa89oS5j3M5",
    "latitude": 10.3597007,
    "longitude": -83.7362979,
    "type": "Medical Center"
  },
  {
    "name": "Consultorio Médico y Dental Drs. Araya",
    "address_1": "75 metros este del Pali Cariari, Pococi, Limón., 1000 Guápiles, Limon, Costa Rica",
    "address_2": 247,
    "website": "",
    "rating": 5,
    "reviews_count": 2,
    "thumbnail": "",
    "latitude": 10.3592239,
    "longitude": -83.7355265,
    "type": "Medical Center"
  },
  {
    "name": "AREA DE SALUD DE CARIARI",
    "address_1": "97J3+5CW",
    "address_2": "Limón, Los Lagos",
    "website": "",
    "rating": "",
    "reviews_count": "",
    "thumbnail": "",
    "latitude": 10.380485,
    "longitude": -83.746413,
    "type": "Community health centre"
  },
  {
    "name": "Gastroenterología y Ginecología - Hospital México",
    "address_1": "WVXM+7RC",
    "address_2": "Av. 31",
    "website": "",
    "rating": "",
    "reviews_count": "",
    "thumbnail": "",
    "latitude": 9.9481838,
    "longitude": -84.1154738,
    "type": "Specialized hospital"
  }
]