[
  {
    "name": "Capilla",
    "address_1": "6686+V9H",
    "address_2": "Hospital de Guápiles, Ambulancias",
    "website": "",
    "rating": 5,
    "reviews_count": 2,
    "thumbnail": "",
    "latitude": 10.2171977,
    "longitude": -83.7890205,
    "type": "Catholic church"
  },
  {
    "name": "Iglesia MMM Guápiles",
    "address_1": "70201 Limón",
    "address_2": "Pococí",
    "website": "",
    "rating": 4.8,
    "reviews_count": 9,
    "thumbnail": "https://lh5.googleusercontent.com/p/AF1QipM9pivjblmFSTfMRG71mu79U6l6-lmSWqkozIgC",
    "latitude": 10.2122213,
    "longitude": -83.7993647,
    "type": "Church"
  },
  {
    "name": "Iglesia Victoria",
    "address_1": "659R+4GJ",
    "address_2": "Urb. La Casona, Limón, Guápiles",
    "website": "",
    "rating": 4.4,
    "reviews_count": 5,
    "thumbnail": "https://lh5.googleusercontent.com/p/AF1QipM_OVEGc5GCMle6TiLZheDsU7fK2fcSMFfZnRey",
    "latitude": 10.2178486,
    "longitude": -83.8087357,
    "type": "Church"
  },
  {
    "name": "Iglesia Gran Comisión",
    "address_1": "6696+9HG",
    "address_2": "Limón, Guápiles",
    "website": "",
    "rating": 4.6,
    "reviews_count": 5,
    "thumbnail": "",
    "latitude": 10.218433,
    "longitude": -83.7885342,
    "type": "Church"
  },
  {
    "name": "IGLESIA PASION POR LAS ALMAS GUAPILES",
    "address_1": "6677+86X",
    "address_2": "Limón, Guápiles",
    "website": "",
    "rating": 5,
    "reviews_count": 1,
    "thumbnail": "https://lh5.googleusercontent.com/p/AF1QipO_KK_cXv-SHkFoSoz4Fp9Ku6f91Qb9cSo0eGEX",
    "latitude": 10.21335,
    "longitude": -83.7868871,
    "type": "Christian church"
  },
  {
    "name": "Iglesia De Dios Evangelio Completo",
    "address_1": "87XH+8HR",
    "address_2": "Unnamed Road, Limón Province, Pococí, cariari",
    "website": "",
    "rating": 4.5,
    "reviews_count": 6,
    "thumbnail": "",
    "latitude": 10.3483535,
    "longitude": -83.7211075,
    "type": "Evangelical church"
  },
  {
    "name": "IGLESIA DE JESUSCRISTO DE LOS SANTOS DE LOS ULTIMOS DIAS, GUAPILES",
    "address_1": "6677+JQG",
    "address_2": "C. 7",
    "website": "",
    "rating": 4.7,
    "reviews_count": 12,
    "thumbnail": "https://lh5.googleusercontent.com/p/AF1QipP_ir__nrPIlxlIj298LJsspeYLvGan8ISAV2t2",
    "latitude": 10.214075,
    "longitude": -83.7855537,
    "type": "Church"
  },
  {
    "name": "Iglesia De Cristo",
    "address_1": "6685+M33",
    "address_2": "Av. 7",
    "website": "",
    "rating": 3,
    "reviews_count": 2,
    "thumbnail": "",
    "latitude": 10.2166302,
    "longitude": -83.7923169,
    "type": "Church"
  },
  {
    "name": "IGLESIA PASION X LAS ALMAS GUAPILES",
    "address_1": "70201 DE LA ESCUELA LOS ANGELES 400 SUR",
    "address_2": "Limón, Guápiles",
    "website": "",
    "rating": "",
    "reviews_count": "",
    "thumbnail": "https://lh5.googleusercontent.com/p/AF1QipMi3X3_WisnTR7APhGZJpo0WiQSh4JPx6nmzrUC",
    "latitude": 10.2045981,
    "longitude": -83.7964252,
    "type": "Christian church"
  },
  {
    "name": "Iglesia Fuente de Luz",
    "address_1": "97JJ+R6J",
    "address_2": "Limón, Pococí",
    "website": "",
    "rating": 4,
    "reviews_count": 1,
    "thumbnail": "https://lh5.googleusercontent.com/p/AF1QipPTa5VpPP6pKBntSM_cFzjKhhvxmpXdKjeWLHpr",
    "latitude": 10.3820884,
    "longitude": -83.719493,
    "type": "Church"
  },
  {
    "name": "Iglesia Ciudad para Las Naciones",
    "address_1": "653J+MHG",
    "address_2": "Ruta Nacional Primaria 32",
    "website": "",
    "rating": 4.9,
    "reviews_count": 34,
    "thumbnail": "https://lh5.googleusercontent.com/p/AF1QipOXF5CumJWwCPCfN29OLn8ep3X3RHZvT8oe1I_i",
    "latitude": 10.2041973,
    "longitude": -83.8185391,
    "type": "Church"
  },
  {
    "name": "Manantial de Vida Church",
    "address_1": "Zurquí",
    "address_2": "Limón Province, Guapiles",
    "website": "",
    "rating": 4.6,
    "reviews_count": 29,
    "thumbnail": "https://lh5.googleusercontent.com/p/AF1QipP6zqNa109FAIFNyv0IFJFBkmz7kSFXTxW2vG0R",
    "latitude": 10.2186091,
    "longitude": -83.7898522,
    "type": "Church"
  },
  {
    "name": "Iglesia Centroamericana Eben-Ezer",
    "address_1": "6657+G24",
    "address_2": "Limón, Guápiles",
    "website": "",
    "rating": "",
    "reviews_count": "",
    "thumbnail": "https://lh5.googleusercontent.com/p/AF1QipP50DHCaslXtFJkn9PWQwgXDWWSX8JECt62XVLB",
    "latitude": 10.2087514,
    "longitude": -83.7874332,
    "type": "Non-denominational church"
  },
  {
    "name": "Parroquia Sagrado Corazón de Jesús",
    "address_1": "6677+86Q",
    "address_2": "Limón, Guápiles",
    "website": "",
    "rating": 4.3,
    "reviews_count": 3,
    "thumbnail": "https://lh5.googleusercontent.com/p/AF1QipNZVQmF0DLtha43LdypgpyDMum8nrDNK4_HG2ql",
    "latitude": 10.2133499,
    "longitude": -83.7868871,
    "type": "Church"
  },
  {
    "name": "Iglesia Oasis De Vida",
    "address_1": "654Q+9MM",
    "address_2": "Barrio Los Bovinos, Limón, Guápiles",
    "website": "ww.iglesiaoasisdevida.org",
    "rating": 4.7,
    "reviews_count": 42,
    "thumbnail": "https://lh5.googleusercontent.com/p/AF1QipNKhStjE_vr-VgLjN5eZ4ilkAaaKDa1guDjLk60",
    "latitude": 10.2059726,
    "longitude": -83.8108138,
    "type": "Church"
  },
  {
    "name": "Iglesia Comunitaria Casa de Adoración",
    "address_1": "6675+Q77",
    "address_2": "Limón, Guápiles",
    "website": "",
    "rating": 5,
    "reviews_count": 16,
    "thumbnail": "https://lh5.googleusercontent.com/p/AF1QipOrQRq7F-QQ9sqH0xfd3ac6aWD-47t5W8cwolIJ",
    "latitude": 10.2144195,
    "longitude": -83.7918279,
    "type": "Church"
  },
  {
    "name": "Iglesia Cristiana Esmirna",
    "address_1": "6684+2CF",
    "address_2": "Limón, Guápiles",
    "website": "",
    "rating": 5,
    "reviews_count": 1,
    "thumbnail": "",
    "latitude": 10.2150738,
    "longitude": -83.7939591,
    "type": "Christian church"
  },
  {
    "name": "Iglesia Asambleas de Dios La Rita",
    "address_1": "La Rita",
    "address_2": "Limón, Pococí",
    "website": "",
    "rating": 5,
    "reviews_count": 1,
    "thumbnail": "https://lh5.googleusercontent.com/p/AF1QipOPxxXzuj1QtoqzU3u8jbdwsy8AhAv9DAPTisyp",
    "latitude": 10.2798857,
    "longitude": -83.7880238,
    "type": "Christian church"
  },
  {
    "name": "Iglesia La Luz del Mundo",
    "address_1": "657V+46X",
    "address_2": "Limón Province, Guapiles",
    "website": "bereainternacional.com",
    "rating": 4.8,
    "reviews_count": 25,
    "thumbnail": "https://lh5.googleusercontent.com/p/AF1QipPokMOKWPQJ6HtrHGNRj39eoQKInDcidbXKRR4n",
    "latitude": 10.2128716,
    "longitude": -83.8068968,
    "type": "Religious destination"
  },
  {
    "name": "Iglesia de Guápiles",
    "address_1": "10°12'51. 83°47'22.",
    "address_2": "C. 5 8",
    "website": "",
    "rating": 4.8,
    "reviews_count": 132,
    "thumbnail": "https://lh5.googleusercontent.com/p/AF1QipMSKhaiPV_x29cRdFd8UesVXQdmtcTVzJXqv8eb",
    "latitude": 10.2141719,
    "longitude": -83.7896406,
    "type": "Catholic church"
  },
  {
    "name": "Iglesia Adventista del Septimo Día",
    "address_1": "6694+JWJ",
    "address_2": "Limón, Guápiles",
    "website": "",
    "rating": 4.8,
    "reviews_count": 8,
    "thumbnail": "",
    "latitude": 10.2190877,
    "longitude": -83.7927415,
    "type": "Church"
  },
  {
    "name": "Parroquia Santa Rita de Casia",
    "address_1": "76J8+46C",
    "address_2": "Limón, Pococí",
    "website": "",
    "rating": 4.8,
    "reviews_count": 26,
    "thumbnail": "https://lh5.googleusercontent.com/p/AF1QipMkOGnjNe3N3giDq_sgdPG-DW_fBGnfBiYeA8oW",
    "latitude": 10.28032,
    "longitude": -83.7844931,
    "type": "Catholic church"
  },
  {
    "name": "Iglesia Bíblica Bautista",
    "address_1": "6664+HCC",
    "address_2": "Barrio Santa Cecilia, Limón, Guápiles",
    "website": "",
    "rating": 4.3,
    "reviews_count": 14,
    "thumbnail": "https://lh5.googleusercontent.com/p/AF1QipP-PA2xfvdDzC6IPwhQodykEkj5yzStTgLIQZEb",
    "latitude": 10.2114433,
    "longitude": -83.7939949,
    "type": "Church"
  },
  {
    "name": "Casa Cural",
    "address_1": "Iglesia Sagrado Corazon de Jesus.",
    "address_2": "Limón, Guápiles",
    "website": "",
    "rating": 4.6,
    "reviews_count": 17,
    "thumbnail": "https://lh5.googleusercontent.com/p/AF1QipPw-pFH3HO3eSFFvglSOjnu7ofsSdaPfVWXWLeb",
    "latitude": 10.2145105,
    "longitude": -83.7893611,
    "type": "Religious organization"
  },
  {
    "name": "Iglesia Metodista Guapiles",
    "address_1": "56XG+3F7",
    "address_2": "C. Tablon",
    "website": "",
    "rating": 4.5,
    "reviews_count": 2,
    "thumbnail": "https://lh5.googleusercontent.com/p/AF1QipP2QewNpExGcA5LKK3CFKp2CfPQijFa5vm3YSQS",
    "latitude": 10.1976659,
    "longitude": -83.7738147,
    "type": "United Methodist church"
  },
  {
    "name": "Vida Abundante Pococí",
    "address_1": "6656+6WX",
    "address_2": "Unnamed Road",
    "website": "vidapococi.org",
    "rating": 5,
    "reviews_count": 1,
    "thumbnail": "https://lh5.googleusercontent.com/p/AF1QipPb1b-PTywrNXEzKpFUNh_nqIwslwOnehtWeF3k",
    "latitude": 10.2081059,
    "longitude": -83.7876287,
    "type": "Christian church"
  },
  {
    "name": "Parroquia Inmaculada Concepción de María de Cariari",
    "address_1": "Escuela Primaria de Cariari",
    "address_2": "Limón, Roxana",
    "website": "facebook.com",
    "rating": 4.9,
    "reviews_count": 20,
    "thumbnail": "https://lh5.googleusercontent.com/p/AF1QipOn4C4sJf1k3uUayx3HIdArIjAJlAWITitgJhMW",
    "latitude": 10.3606197,
    "longitude": -83.7347443,
    "type": "Catholic church"
  },
  {
    "name": "Iglesia Dosis De Amor",
    "address_1": "6665+F3R",
    "address_2": "Barrio Santa Cecilia, Limón Province, Guapiles",
    "website": "facebook.com",
    "rating": 4.8,
    "reviews_count": 6,
    "thumbnail": "https://lh5.googleusercontent.com/p/AF1QipP96bX80Rw5c1nMkAa669JtZtOaTe2vvd5Wy8KH",
    "latitude": 10.211233,
    "longitude": -83.7923565,
    "type": "Place of worship"
  },
  {
    "name": "Iglesia de Suerre",
    "address_1": "56PX+H6W",
    "address_2": "Unnamed Road",
    "website": "",
    "rating": 4.8,
    "reviews_count": 10,
    "thumbnail": "https://lh5.googleusercontent.com/p/AF1QipMDUX95Zvp18CACyCDgY_28Q_iBrPFoXTg5t1P8",
    "latitude": 10.1864839,
    "longitude": -83.7519104,
    "type": "Catholic church"
  },
  {
    "name": "Iglesia Nación Santa",
    "address_1": "666P+9GP",
    "address_2": "C. Vieja",
    "website": "",
    "rating": 3.9,
    "reviews_count": 7,
    "thumbnail": "https://lh5.googleusercontent.com/p/AF1QipPYxQA7xqy8l2ooba2_7Ood_P5h-uoPmlHYouE",
    "latitude": 10.2109678,
    "longitude": -83.7636849,
    "type": "Church"
  },
  {
    "name": "Salón Parroquial de Guápiles",
    "address_1": "6685+398",
    "address_2": "Limón, Guápiles",
    "website": "",
    "rating": "",
    "reviews_count": "",
    "thumbnail": "",
    "latitude": 10.2151605,
    "longitude": -83.7915379,
    "type": "Spiritist center"
  },
  {
    "name": "Parroquia Inmaculada Concepción de Maria, Guácimo",
    "address_1": "663F+79C",
    "address_2": "Limón, Jiménez",
    "website": "",
    "rating": 5,
    "reviews_count": 1,
    "thumbnail": "https://lh5.googleusercontent.com/p/AF1QipNGCyYlKz96xHYc8FpFBKs_wu5cT43HlVN0pFj_",
    "latitude": 10.2031759,
    "longitude": -83.7766221,
    "type": "Parish"
  },
  {
    "name": "Iglesia Evangélica Roca Eterna",
    "address_1": "568G+WQ9",
    "address_2": "Limón, Jiménez",
    "website": "",
    "rating": 5,
    "reviews_count": 2,
    "thumbnail": "https://lh5.googleusercontent.com/p/AF1QipP4C4d3WCTyAunafuNgVd4e5fj8pOR23HiozlSv",
    "latitude": 10.1672961,
    "longitude": -83.7730237,
    "type": "Evangelical church"
  },
  {
    "name": "Iglesia Adventista del Séptimo Día, La Lidia",
    "address_1": "985P+VCC",
    "address_2": "Unnamed Road",
    "website": "",
    "rating": "",
    "reviews_count": "",
    "thumbnail": "",
    "latitude": 10.3596778,
    "longitude": -83.663996,
    "type": "Seventh-day Adventist church"
  },
  {
    "name": "Iglesia Adventista del 7º Bº los Diamantes",
    "address_1": "Área de Conservación Tortuguero",
    "address_2": "Barrio Los Diamantes, Limón, Jiménez",
    "website": "",
    "rating": "",
    "reviews_count": "",
    "thumbnail": "https://lh5.googleusercontent.com/p/AF1QipOP_a7gzUN4fYor2x7POB6JkMV0w9ZaxiinMEzt",
    "latitude": 10.2132891,
    "longitude": -83.7762649,
    "type": "Seventh-day Adventist church"
  },
  {
    "name": "Iglesia de Jiménez",
    "address_1": "6755+6C6",
    "address_2": "Limón, Jiménez",
    "website": "",
    "rating": 5,
    "reviews_count": 1,
    "thumbnail": "https://lh5.googleusercontent.com/p/AF1QipO1EfMcK38JKBFJt0e5XkAMMWAH41rep7Xaq3JZ",
    "latitude": 10.2080307,
    "longitude": -83.7414856,
    "type": "Catholic church"
  },
  {
    "name": "Iglesia Oasis de vida",
    "address_1": "6782+QWP",
    "address_2": "Limón Province, Jiménez",
    "website": "iglesiaoasisdevida.org",
    "rating": 1,
    "reviews_count": 1,
    "thumbnail": "https://lh5.googleusercontent.com/p/AF1QipNCztyyx7NX2xcH4ZGHER1-au0gqXKsQHrM5Red",
    "latitude": 10.2169512,
    "longitude": -83.7476839,
    "type": "Christian church"
  }
]