[
  {
    "name": "Iglesia MMM Guápiles",
    "address_1": "70201 Limón",
    "address_2": "Pococí",
    "website": "",
    "rating": 4.8,
    "reviews_count": 9,
    "thumbnail": "https://lh5.googleusercontent.com/p/AF1QipM9pivjblmFSTfMRG71mu79U6l6-lmSWqkozIgC",
    "latitude": 10.2122213,
    "longitude": -83.7993647,
    "type": "Church"
  },
  {
    "name": "Iglesia de La Teresa",
    "address_1": "854V+CPJ",
    "address_2": "Limón, Pococí",
    "website": "",
    "rating": "",
    "reviews_count": "",
    "thumbnail": "https://lh5.googleusercontent.com/p/AF1QipN_RR59SimyC4gNPHl1oLEWY1oQ0rpYBRuPeXGv",
    "latitude": 10.3060798,
    "longitude": -83.8057353,
    "type": "Catholic church"
  },
  {
    "name": "Iglesia Ciudad para Las Naciones",
    "address_1": "653J+MHG",
    "address_2": "Ruta Nacional Primaria 32",
    "website": "",
    "rating": 4.9,
    "reviews_count": 34,
    "thumbnail": "https://lh5.googleusercontent.com/p/AF1QipOXF5CumJWwCPCfN29OLn8ep3X3RHZvT8oe1I_i",
    "latitude": 10.2041973,
    "longitude": -83.8185391,
    "type": "Church"
  },
  {
    "name": "Iglesia Gran Comisión",
    "address_1": "6696+9HG",
    "address_2": "Limón, Guápiles",
    "website": "",
    "rating": 4.6,
    "reviews_count": 5,
    "thumbnail": "",
    "latitude": 10.218433,
    "longitude": -83.7885342,
    "type": "Church"
  },
  {
    "name": "Iglesia Católica El Ceibo",
    "address_1": "F98P+2C8",
    "address_2": "El Ceibo",
    "website": "",
    "rating": "",
    "reviews_count": "",
    "thumbnail": "",
    "latitude": 10.4650299,
    "longitude": -83.6139312,
    "type": "Church"
  },
  {
    "name": "Iglesia Toro Amarillo",
    "address_1": "657R+6G2",
    "address_2": "Urb. La Casona, Limón, Guápiles",
    "website": "",
    "rating": 4.3,
    "reviews_count": 28,
    "thumbnail": "https://lh5.googleusercontent.com/p/AF1QipNGuVpUwBdvV_kJ1LWyT05fJbTRrpmeOguxJ8e5",
    "latitude": 10.2130059,
    "longitude": -83.8087267,
    "type": "Catholic church"
  },
  {
    "name": "Iglesia Victoria",
    "address_1": "659R+4GJ",
    "address_2": "Urb. La Casona, Limón, Guápiles",
    "website": "",
    "rating": 4.4,
    "reviews_count": 5,
    "thumbnail": "https://lh5.googleusercontent.com/p/AF1QipM_OVEGc5GCMle6TiLZheDsU7fK2fcSMFfZnRey",
    "latitude": 10.2178486,
    "longitude": -83.8087357,
    "type": "Church"
  },
  {
    "name": "Iglesia Maranatha",
    "address_1": "66F3+4VG",
    "address_2": "Maranatha, San Rafael, Guápiles,",
    "website": "",
    "rating": 5,
    "reviews_count": 1,
    "thumbnail": "https://lh5.googleusercontent.com/p/AF1QipN-f69aPyRPVtWSxELi0MO7vvr3edRpFVwwiJfp",
    "latitude": 10.2228212,
    "longitude": -83.7953089,
    "type": "Place of worship"
  },
  {
    "name": "Iglesia Fuente de Luz",
    "address_1": "97JJ+R6J",
    "address_2": "Limón, Pococí",
    "website": "",
    "rating": 4,
    "reviews_count": 1,
    "thumbnail": "https://lh5.googleusercontent.com/p/AF1QipPTa5VpPP6pKBntSM_cFzjKhhvxmpXdKjeWLHpr",
    "latitude": 10.3820884,
    "longitude": -83.719493,
    "type": "Church"
  },
  {
    "name": "Iglesia de Dios Refrigerio de lo Alto",
    "address_1": "659R+HQ6",
    "address_2": "Limón, Guápiles",
    "website": "",
    "rating": 4.5,
    "reviews_count": 2,
    "thumbnail": "https://lh5.googleusercontent.com/p/AF1QipPYV_45tyIux-0zixiXmiBV7aXDhGJ9B7ye__C2",
    "latitude": 10.2189138,
    "longitude": -83.8081041,
    "type": "Christian church"
  },
  {
    "name": "Iglesia de Pueblo Nuevo",
    "address_1": "100 mts este del taller mecánico de Pueblo Nuevo de Duacarí",
    "address_2": "Limón, Pococí",
    "website": "",
    "rating": 5,
    "reviews_count": 1,
    "thumbnail": "https://lh5.googleusercontent.com/p/AF1QipPExBeVpC0BMjQtEAegQ7Ora1kPsXBDBeCCxbtY",
    "latitude": 10.3319177,
    "longitude": -83.5974497,
    "type": "Catholic church"
  },
  {
    "name": "Iglesia oasis de paz",
    "address_1": 70601,
    "address_2": "Limón, Guápiles",
    "website": "",
    "rating": 5,
    "reviews_count": 4,
    "thumbnail": "https://lh5.googleusercontent.com/p/AF1QipPyJP0efjEZRYOnAyKdJ6qRk9p2UV0M_uQXUkls",
    "latitude": 10.1684149,
    "longitude": -83.5991385,
    "type": "Church"
  },
  {
    "name": "IGLESIA PASION POR LAS ALMAS GUAPILES",
    "address_1": "6677+86X",
    "address_2": "Limón, Guápiles",
    "website": "",
    "rating": 5,
    "reviews_count": 1,
    "thumbnail": "https://lh5.googleusercontent.com/p/AF1QipO_KK_cXv-SHkFoSoz4Fp9Ku6f91Qb9cSo0eGEX",
    "latitude": 10.21335,
    "longitude": -83.7868871,
    "type": "Christian church"
  },
  {
    "name": "Manantial de Vida Church",
    "address_1": "Zurquí",
    "address_2": "Limón Province, Guapiles",
    "website": "",
    "rating": 4.6,
    "reviews_count": 29,
    "thumbnail": "https://lh5.googleusercontent.com/p/AF1QipP6zqNa109FAIFNyv0IFJFBkmz7kSFXTxW2vG0R",
    "latitude": 10.2186091,
    "longitude": -83.7898522,
    "type": "Church"
  },
  {
    "name": "Iglesia pentecostal",
    "address_1": "C6GW+544",
    "address_2": "Limón, Pococí",
    "website": "",
    "rating": "",
    "reviews_count": "",
    "thumbnail": "",
    "latitude": 10.4253998,
    "longitude": -83.7546751,
    "type": "Church"
  },
  {
    "name": "Iglesia CCAJ Guápiles",
    "address_1": "87CM+Q2V",
    "address_2": "Limón, Guápiles",
    "website": "",
    "rating": 5,
    "reviews_count": 1,
    "thumbnail": "https://lh5.googleusercontent.com/p/AF1QipM7kV3O6QIRlRCgLJioXmiYGAWhuATPoqILc-Ml",
    "latitude": 10.3219752,
    "longitude": -83.7174585,
    "type": "Church"
  },
  {
    "name": "Iglesia de Camuro",
    "address_1": "F8X5+387",
    "address_2": "Limón, Roxana",
    "website": "",
    "rating": 5,
    "reviews_count": 1,
    "thumbnail": "",
    "latitude": 10.4976581,
    "longitude": -83.6916925,
    "type": "Church"
  },
  {
    "name": "Iglesia Asambleas de Dios La Rita",
    "address_1": "La Rita",
    "address_2": "Limón, Pococí",
    "website": "",
    "rating": 5,
    "reviews_count": 1,
    "thumbnail": "https://lh5.googleusercontent.com/p/AF1QipOPxxXzuj1QtoqzU3u8jbdwsy8AhAv9DAPTisyp",
    "latitude": 10.2798857,
    "longitude": -83.7880238,
    "type": "Christian church"
  },
  {
    "name": "Iglesia Misión palabra de vida Guapiles",
    "address_1": "Costa Rica",
    "address_2": "CR Limon Pococi 코스타리카 Guapiles, 코스타리카 과필레스, Limón pococí Guapiles , al frente del polideportivo hacia oeste 60m y primer entrada a la derecha 50m al final",
    "website": "jbch.org",
    "rating": "",
    "reviews_count": "",
    "thumbnail": "https://lh5.googleusercontent.com/p/AF1QipOmTfWK4vxxk0ZpA23JDUVI4U7m73RRubPlOQgk",
    "latitude": 10.2276856,
    "longitude": -83.7808175,
    "type": "Church"
  },
  {
    "name": "iglesia de Dios evangelio completo",
    "address_1": "769Q+3HM",
    "address_2": "Unnamed Road Limón Roxana",
    "website": "",
    "rating": "",
    "reviews_count": "",
    "thumbnail": "",
    "latitude": 10.267719,
    "longitude": -83.7610728,
    "type": "Church"
  },
  {
    "name": "Iglesia de El Prado",
    "address_1": "66W9+WXR",
    "address_2": "Barrio El Prado, Limón, Guápiles",
    "website": "",
    "rating": 4.5,
    "reviews_count": 2,
    "thumbnail": "https://lh5.googleusercontent.com/p/AF1QipMkFrNU0MYMDvxJ5Yjv8L0MZejZd0dCJwKhIX5l",
    "latitude": 10.2473526,
    "longitude": -83.7801052,
    "type": "Catholic church"
  },
  {
    "name": "Iglesia De Dios Evangelio Completo",
    "address_1": "87XH+8HR",
    "address_2": "Unnamed Road, Limón Province, Pococí, cariari",
    "website": "",
    "rating": 4.5,
    "reviews_count": 6,
    "thumbnail": "",
    "latitude": 10.3483535,
    "longitude": -83.7211075,
    "type": "Evangelical church"
  },
  {
    "name": "Iglesia De Dios Evangelion Completo",
    "address_1": "814, Limón",
    "address_2": "Pococí",
    "website": "",
    "rating": 2.5,
    "reviews_count": 2,
    "thumbnail": "",
    "latitude": 10.4531274,
    "longitude": -83.7018378,
    "type": "Evangelical church"
  },
  {
    "name": "Parroquia Santa Rita de Casia",
    "address_1": "76J8+46C",
    "address_2": "Limón, Pococí",
    "website": "",
    "rating": 4.8,
    "reviews_count": 26,
    "thumbnail": "https://lh5.googleusercontent.com/p/AF1QipMUWHGGchCISkHeDjadKP1xOesLTHoog0jZDf2-",
    "latitude": 10.28032,
    "longitude": -83.7844931,
    "type": "Catholic church"
  },
  {
    "name": "Iglesia Nueva vida",
    "address_1": "400 mts de ebais Jardín, Limón",
    "address_2": "Costa Rica",
    "website": "",
    "rating": "",
    "reviews_count": "",
    "thumbnail": "",
    "latitude": 10.3948911,
    "longitude": -83.7956113,
    "type": "Church"
  },
  {
    "name": "Parroquia San Isidro Labrador",
    "address_1": "Campo Dos de Cariari Limón Pococí",
    "address_2": 70205,
    "website": "",
    "rating": 5,
    "reviews_count": 6,
    "thumbnail": "https://lh5.googleusercontent.com/p/AF1QipNKKyP8PGCo6i2zsRUPgahw3-0ff7OAbJdM6GRH",
    "latitude": 10.4022289,
    "longitude": -83.6933422,
    "type": "Catholic church"
  },
  {
    "name": "Iglesia de Astua-Pirie",
    "address_1": "87V6+9R7",
    "address_2": 247,
    "website": "",
    "rating": 4.4,
    "reviews_count": 10,
    "thumbnail": "https://lh5.googleusercontent.com/p/AF1QipMhhZTNEr-xaaucP_7kcANHK9gs18bWAaXwaNJI",
    "latitude": 10.3434134,
    "longitude": -83.7379512,
    "type": "Catholic church"
  },
  {
    "name": "Iglesia Católica María Auxiliadora -La Sirena",
    "address_1": "963C+W28",
    "address_2": "Limón, Pococí",
    "website": "",
    "rating": "",
    "reviews_count": "",
    "thumbnail": "",
    "latitude": 10.3547947,
    "longitude": -83.7799195,
    "type": "Church"
  },
  {
    "name": "Iglesia de Guápiles",
    "address_1": "10°12'51. 83°47'22.",
    "address_2": "C. 5 8",
    "website": "",
    "rating": 4.8,
    "reviews_count": 132,
    "thumbnail": "https://lh5.googleusercontent.com/p/AF1QipNW_Vdb237wBo7Jk98uGbzuji1Vmzp3JvFa2l-l",
    "latitude": 10.2141719,
    "longitude": -83.7896406,
    "type": "Catholic church"
  },
  {
    "name": "Iglesia Aposento Alto",
    "address_1": "66F9+R4H",
    "address_2": "Limón Province, Guapiles",
    "website": "",
    "rating": 5,
    "reviews_count": 8,
    "thumbnail": "https://lh5.googleusercontent.com/p/AF1QipPyia1FD6wk4VmAAhNz0JUEVogqXaInq16JJIkr",
    "latitude": 10.2245724,
    "longitude": -83.7821254,
    "type": "Place of worship"
  },
  {
    "name": "Iglesia Cristiana Rompiendo Cadenas",
    "address_1": "59GW+QXC",
    "address_2": "Frente al costado Norte de la Clínica de",
    "website": "",
    "rating": "",
    "reviews_count": "",
    "thumbnail": "",
    "latitude": 10.1769374,
    "longitude": -83.6026247,
    "type": "Church"
  },
  {
    "name": "Iglesia, Asambleas de Dios",
    "address_1": "Calle El Progreso",
    "address_2": "Limón, Pococí",
    "website": "negocio.site",
    "rating": "",
    "reviews_count": "",
    "thumbnail": "https://lh5.googleusercontent.com/p/AF1QipOLwMhVY9jtES5dW3L-uMXwV28HpQLD_N72Rmm7",
    "latitude": 10.3783191,
    "longitude": -83.7579595,
    "type": "Church"
  },
  {
    "name": "Iglesia Cristiana Patio San Cristóbal",
    "address_1": "85R8+VG4",
    "address_2": "Unnamed Road, Limón Province, Santa Rosa, La",
    "website": "",
    "rating": 4.7,
    "reviews_count": 3,
    "thumbnail": "https://lh5.googleusercontent.com/p/AF1QipNo3EuG0Oa72KX68YiJs1xrLHZ7dEzmnI1T3auT",
    "latitude": 10.3421276,
    "longitude": -83.833675,
    "type": "Christian church"
  },
  {
    "name": "Iglesia Oasis De Vida",
    "address_1": "654Q+9MM",
    "address_2": "Barrio Los Bovinos, Limón, Guápiles",
    "website": "ww.iglesiaoasisdevida.org",
    "rating": 4.7,
    "reviews_count": 42,
    "thumbnail": "https://lh5.googleusercontent.com/p/AF1QipNKhStjE_vr-VgLjN5eZ4ilkAaaKDa1guDjLk60",
    "latitude": 10.2059726,
    "longitude": -83.8108138,
    "type": "Church"
  },
  {
    "name": "Templo Católico La Emilia",
    "address_1": "667C+6JR",
    "address_2": "Barrio Los Diamantes, Limón, Guápiles",
    "website": "",
    "rating": 5,
    "reviews_count": 1,
    "thumbnail": "https://lh5.googleusercontent.com/p/AF1QipOHIwJkJTbjQ9aruhH3tQu9OHrGy7SCOgTIzbKk",
    "latitude": 10.2131099,
    "longitude": -83.7784771,
    "type": "Catholic church"
  },
  {
    "name": "Iglesia católica las colinas",
    "address_1": "F7WP+Q6F",
    "address_2": "Limón, Pococí",
    "website": "",
    "rating": "",
    "reviews_count": "",
    "thumbnail": "",
    "latitude": 10.4969371,
    "longitude": -83.7144582,
    "type": "Church"
  },
  {
    "name": "Iglesia católica de Hojancha",
    "address_1": "C72G+WJ4",
    "address_2": "Limón, Pococí",
    "website": "",
    "rating": "",
    "reviews_count": "",
    "thumbnail": "",
    "latitude": 10.4022623,
    "longitude": -83.723437,
    "type": "Church"
  },
  {
    "name": "Iglesia Centroamericana Bataan",
    "address_1": "3MP5+F24",
    "address_2": "Limón Province, Batán",
    "website": "",
    "rating": 3.8,
    "reviews_count": 6,
    "thumbnail": "",
    "latitude": 10.0861254,
    "longitude": -83.3424116,
    "type": "Evangelical church"
  },
  {
    "name": "Iglesia Católica de Ticabán",
    "address_1": "C529+RH2",
    "address_2": "Ticabán, Limón, Pococí",
    "website": "",
    "rating": "",
    "reviews_count": "",
    "thumbnail": "",
    "latitude": 10.4017271,
    "longitude": -83.830349,
    "type": "Church"
  },
  {
    "name": "Iglesia Dosis De Amor",
    "address_1": "6665+F3R",
    "address_2": "Barrio Santa Cecilia, Limón Province, Guapiles",
    "website": "facebook.com",
    "rating": 4.8,
    "reviews_count": 6,
    "thumbnail": "https://lh5.googleusercontent.com/p/AF1QipP96bX80Rw5c1nMkAa669JtZtOaTe2vvd5Wy8KH",
    "latitude": 10.211233,
    "longitude": -83.7923565,
    "type": "Place of worship"
  },
  {
    "name": "Iglesia de Dios Evangelio Completo",
    "address_1": 9,
    "address_2": "Limón, Pococí, Rita, San Gerardo, sector",
    "website": "",
    "rating": "",
    "reviews_count": "",
    "thumbnail": "",
    "latitude": 10.4103312,
    "longitude": -83.861993,
    "type": "Church"
  },
  {
    "name": "Parroquia Sagrado Corazón de Jesús",
    "address_1": "6677+86Q",
    "address_2": "Limón, Guápiles",
    "website": "",
    "rating": 4.3,
    "reviews_count": 3,
    "thumbnail": "https://lh5.googleusercontent.com/p/AF1QipNZVQmF0DLtha43LdypgpyDMum8nrDNK4_HG2ql",
    "latitude": 10.2133499,
    "longitude": -83.7868871,
    "type": "Church"
  },
  {
    "name": "Iglesia Católica Bella Vista",
    "address_1": "558Q+MF5",
    "address_2": "Limón, Guápiles",
    "website": "",
    "rating": "",
    "reviews_count": "",
    "thumbnail": "https://lh5.googleusercontent.com/p/AF1QipNflo-wykLwFOn7KfxeZmeMdxQbe931GM2KpOFC",
    "latitude": 10.166604,
    "longitude": -83.8122799,
    "type": "Catholic church"
  },
  {
    "name": "Iglesia de Nájera",
    "address_1": "869Q+RF3",
    "address_2": "Limón, Pococí",
    "website": "",
    "rating": "",
    "reviews_count": "",
    "thumbnail": "https://lh5.googleusercontent.com/p/AF1QipM6Gs9TaMCqiH9H9TODzpDBzhmM2mUlYPip798U",
    "latitude": 10.3195084,
    "longitude": -83.7613419,
    "type": "Catholic church"
  },
  {
    "name": "Iglesia Ciudad De Cristo Pocora",
    "address_1": "596W+VX9",
    "address_2": "El Carmen Sur, Limón Province, Pocora",
    "website": "",
    "rating": 5,
    "reviews_count": 3,
    "thumbnail": "https://lh5.googleusercontent.com/p/AF1QipOKOZK6x2NnUGBm27OSDnOFO6sjIFL9kpePFOmx",
    "latitude": 10.1621712,
    "longitude": -83.6025205,
    "type": "Wesleyan church"
  },
  {
    "name": "Iglesia La Luz del Mundo",
    "address_1": "657V+46X",
    "address_2": "Limón Province, Guapiles",
    "website": "bereainternacional.com",
    "rating": 4.8,
    "reviews_count": 25,
    "thumbnail": "https://lh5.googleusercontent.com/p/AF1QipPokMOKWPQJ6HtrHGNRj39eoQKInDcidbXKRR4n",
    "latitude": 10.2128716,
    "longitude": -83.8068968,
    "type": "Religious destination"
  },
  {
    "name": "Iglesia Adventista del Septimo Día",
    "address_1": "6694+JWJ",
    "address_2": "Limón, Guápiles",
    "website": "",
    "rating": 4.8,
    "reviews_count": 8,
    "thumbnail": "",
    "latitude": 10.2190877,
    "longitude": -83.7927415,
    "type": "Church"
  },
  {
    "name": "Iglesia Católica de San Antonio",
    "address_1": "77JG+CQF",
    "address_2": 810,
    "website": "",
    "rating": 5,
    "reviews_count": 4,
    "thumbnail": "https://lh5.googleusercontent.com/p/AF1QipOZA5sHr3yZbbstQtxSQ0GybE7wGdrRr5SytYZz",
    "latitude": 10.2810622,
    "longitude": -83.7230666,
    "type": "Catholic church"
  },
  {
    "name": "Iglesia Centroamericana Eben-Ezer",
    "address_1": "6657+G24",
    "address_2": "Limón, Guápiles",
    "website": "",
    "rating": "",
    "reviews_count": "",
    "thumbnail": "https://lh5.googleusercontent.com/p/AF1QipP50DHCaslXtFJkn9PWQwgXDWWSX8JECt62XVLB",
    "latitude": 10.2087514,
    "longitude": -83.7874332,
    "type": "Non-denominational church"
  },
  {
    "name": "Iglesia de la Argentina",
    "address_1": "49R9+343",
    "address_2": "Limón, Guácimo",
    "website": "",
    "rating": 3.7,
    "reviews_count": 3,
    "thumbnail": "https://lh5.googleusercontent.com/p/AF1QipM5fQJVDBIdeFl9D0jdQ11V02_JyjBQwpIYhWqX",
    "latitude": 10.1401406,
    "longitude": -83.6321884,
    "type": "Church"
  },
  {
    "name": "Iglesia Comunitaria Casa de Adoración",
    "address_1": "6675+Q77",
    "address_2": "Limón, Guápiles",
    "website": "",
    "rating": 5,
    "reviews_count": 16,
    "thumbnail": "https://lh5.googleusercontent.com/p/AF1QipOrQRq7F-QQ9sqH0xfd3ac6aWD-47t5W8cwolIJ",
    "latitude": 10.2144195,
    "longitude": -83.7918279,
    "type": "Church"
  },
  {
    "name": "Iglesia Católica Campo 3 Oeste",
    "address_1": "97J9+H6P",
    "address_2": "Limón, Pococí",
    "website": "",
    "rating": "",
    "reviews_count": "",
    "thumbnail": "",
    "latitude": 10.3814716,
    "longitude": -83.7319063,
    "type": "Church"
  },
  {
    "name": "iglesia evangelio completo de Dios.",
    "address_1": "66R7+Q9F",
    "address_2": "Limón Province, Guapiles",
    "website": "",
    "rating": "",
    "reviews_count": "",
    "thumbnail": "",
    "latitude": 10.2419358,
    "longitude": -83.7865669,
    "type": "Christian church"
  },
  {
    "name": "Iglesia de San Rafael",
    "address_1": "Iglesia de San Rafael de La Colonia",
    "address_2": "C. Estándar",
    "website": "",
    "rating": 4.5,
    "reviews_count": 15,
    "thumbnail": "https://lh5.googleusercontent.com/p/AF1QipNT0OwSlkm_1Xo0cTfUmVxn9CGe7Xz2W8DvyT8R",
    "latitude": 10.2438626,
    "longitude": -83.8036788,
    "type": "Catholic church"
  },
  {
    "name": "Templo católico de Campo uno",
    "address_1": "979Q+442",
    "address_2": "C. El Coto",
    "website": "",
    "rating": 5,
    "reviews_count": 2,
    "thumbnail": "",
    "latitude": 10.367762,
    "longitude": -83.7122235,
    "type": "Church"
  },
  {
    "name": "Iglesia Catolica Tournon",
    "address_1": "C6PR+JVF",
    "address_2": "Limón, Pococí",
    "website": "",
    "rating": "",
    "reviews_count": "",
    "thumbnail": "",
    "latitude": 10.4365663,
    "longitude": -83.7578364,
    "type": "Church"
  },
  {
    "name": "Iglesia de Dios Pentecostal MI",
    "address_1": "59CR+3X7",
    "address_2": "Ctra. Braulio Carrillo",
    "website": "iddpmicr.wixsite.com",
    "rating": "",
    "reviews_count": "",
    "thumbnail": "",
    "latitude": 10.1701695,
    "longitude": -83.6075882,
    "type": "Pentecostal church"
  },
  {
    "name": "Iglesia de Pocora",
    "address_1": "59FW+2CM",
    "address_2": "Limón, Pocora",
    "website": "",
    "rating": 4.4,
    "reviews_count": 10,
    "thumbnail": "https://lh5.googleusercontent.com/p/AF1QipMLSEPGWPMLLl40xeaV5KeQPgYm9b5reWL-CLDd",
    "latitude": 10.1725999,
    "longitude": -83.6039561,
    "type": "Catholic church"
  },
  {
    "name": "Iglesia Católica de Tarire",
    "address_1": "85FR+7XV",
    "address_2": "Tarire Park, Unnamed Road",
    "website": "",
    "rating": "",
    "reviews_count": "",
    "thumbnail": "",
    "latitude": 10.3232484,
    "longitude": -83.8075851,
    "type": "Church"
  },
  {
    "name": "Iglesia Católica de Campo Cinco",
    "address_1": "97PJ+MWP",
    "address_2": "Limón, Roxana",
    "website": "",
    "rating": 4.8,
    "reviews_count": 8,
    "thumbnail": "https://lh5.googleusercontent.com/p/AF1QipNNRZ7vS6sg0uTqPPSlvoFgqVV-DBo3eMPsfTJk",
    "latitude": 10.3867216,
    "longitude": -83.7176777,
    "type": "Catholic church"
  },
  {
    "name": "Iglesia de Dios Evangelio Completo Perdiz",
    "address_1": "86VC+XM7",
    "address_2": "Unnamed Road, Limón",
    "website": "",
    "rating": "",
    "reviews_count": "",
    "thumbnail": "",
    "latitude": 10.3449039,
    "longitude": -83.7783135,
    "type": "Evangelical church"
  },
  {
    "name": "Iglesia Adventista En Cariari...",
    "address_1": "9764+VJ8",
    "address_2": "Barrio España, Limón, Pococí",
    "website": "",
    "rating": 4,
    "reviews_count": 4,
    "thumbnail": "",
    "latitude": 10.3621606,
    "longitude": -83.7434102,
    "type": "Church"
  },
  {
    "name": "Iglesia de Parismina",
    "address_1": "59X2+6W9",
    "address_2": "Limón, Guácimo",
    "website": "",
    "rating": "",
    "reviews_count": "",
    "thumbnail": "https://lh5.googleusercontent.com/p/AF1QipO1TNhD58ULnQP77RFB5Z00ILtl1sMgCuq68NwW",
    "latitude": 10.1980437,
    "longitude": -83.6476305,
    "type": "Catholic church"
  },
  {
    "name": "Iglesia Campo Cuatro",
    "address_1": "98Q6+8M8",
    "address_2": "Limón, Roxana",
    "website": "",
    "rating": 4.5,
    "reviews_count": 2,
    "thumbnail": "",
    "latitude": 10.3882895,
    "longitude": -83.6882935,
    "type": "Catholic church"
  },
  {
    "name": "La Iglesia de Jesucristo de Los Santos de Los Últimos Días",
    "address_1": "9757+99V",
    "address_2": "Limón, Pococí",
    "website": "",
    "rating": "",
    "reviews_count": "",
    "thumbnail": "",
    "latitude": 10.3584887,
    "longitude": -83.7365894,
    "type": "Church"
  },
  {
    "name": "Iglesia Católica Sahara",
    "address_1": "4JPR+7VG",
    "address_2": "Limón",
    "website": "",
    "rating": 4.3,
    "reviews_count": 6,
    "thumbnail": "https://lh5.googleusercontent.com/p/AF1QipPRf_B74jGSkIFLXRNbmxw3kxYQb2lw9n5MfENv",
    "latitude": 10.1356863,
    "longitude": -83.3577889,
    "type": "Catholic church"
  },
  {
    "name": "Iglesia de El Carmen",
    "address_1": "100 m este y 40 m sur de la Escuela El Carmen",
    "address_2": "Costa Rica",
    "website": "",
    "rating": 5,
    "reviews_count": 1,
    "thumbnail": "",
    "latitude": 10.1623452,
    "longitude": -83.6020326,
    "type": "Catholic church"
  },
  {
    "name": "Iglesia MMM Najera",
    "address_1": "867Q+R4X",
    "address_2": "Limón, Pococí",
    "website": "",
    "rating": "",
    "reviews_count": "",
    "thumbnail": "",
    "latitude": 10.314613,
    "longitude": -83.7621424,
    "type": "Christian church"
  },
  {
    "name": "Iglesia Adventista del Septimo Día - El Rótulo",
    "address_1": "249, Limón",
    "address_2": "Pococí",
    "website": "",
    "rating": 3.8,
    "reviews_count": 4,
    "thumbnail": "",
    "latitude": 10.4114198,
    "longitude": -83.7541976,
    "type": "Seventh-day Adventist church"
  },
  {
    "name": "Iglesia Bíblica Bautista",
    "address_1": "6664+HCC",
    "address_2": "Barrio Santa Cecilia, Limón, Guápiles",
    "website": "",
    "rating": 4.3,
    "reviews_count": 14,
    "thumbnail": "https://lh5.googleusercontent.com/p/AF1QipP-PA2xfvdDzC6IPwhQodykEkj5yzStTgLIQZEb",
    "latitude": 10.2114433,
    "longitude": -83.7939949,
    "type": "Church"
  },
  {
    "name": "Parroquia Inmaculada Concepción de María de Cariari",
    "address_1": "Escuela Primaria de Cariari",
    "address_2": "Limón, Roxana",
    "website": "facebook.com",
    "rating": 4.9,
    "reviews_count": 20,
    "thumbnail": "https://lh5.googleusercontent.com/p/AF1QipOn4C4sJf1k3uUayx3HIdArIjAJlAWITitgJhMW",
    "latitude": 10.3606197,
    "longitude": -83.7347443,
    "type": "Catholic church"
  },
  {
    "name": "Iglesia Católica de La Aurora",
    "address_1": "8FWJ+4RG",
    "address_2": "Unnamed Road, Limón",
    "website": "",
    "rating": "",
    "reviews_count": "",
    "thumbnail": "https://lh5.googleusercontent.com/p/AF1QipP4p4JOcRAb7SzePP-zVOM9I6j-0W9HV3VOaGOn",
    "latitude": 10.3453145,
    "longitude": -83.5179244,
    "type": "Catholic church"
  },
  {
    "name": "Iglsia Revolución Profética A.D los Almendros",
    "address_1": "3JWW+XPR",
    "address_2": "Barrio Los Almendros, Limón",
    "website": "",
    "rating": 5,
    "reviews_count": 2,
    "thumbnail": "https://lh5.googleusercontent.com/p/AF1QipPyw2cDj5OAV1upv6OVmcixzbTqA4cxQam_3gW_",
    "latitude": 10.0975,
    "longitude": -83.3532457,
    "type": "Full Gospel church"
  },
  {
    "name": "iglesia puertas del cielo",
    "address_1": "854R+XV9",
    "address_2": "Limón Province, Pococí",
    "website": "",
    "rating": "",
    "reviews_count": "",
    "thumbnail": "",
    "latitude": 10.3074079,
    "longitude": -83.8077519,
    "type": "Place of worship"
  },
  {
    "name": "Iglesia Adventista del Séptimo Día - El Ceibo",
    "address_1": "F98Q+5GJ",
    "address_2": "Limón, Roxana",
    "website": "",
    "rating": "",
    "reviews_count": "",
    "thumbnail": "",
    "latitude": 10.4654647,
    "longitude": -83.6112457,
    "type": "Seventh-day Adventist church"
  },
  {
    "name": "Iglesia Episcopal Anglicana de Batán",
    "address_1": "3MM6+Q7W",
    "address_2": "Diagonal a la Delegación de la Fuerza Pública de",
    "website": "",
    "rating": 4,
    "reviews_count": 1,
    "thumbnail": "",
    "latitude": 10.0844821,
    "longitude": -83.3392925,
    "type": "Episcopal church"
  },
  {
    "name": "Iglesia Centroamericana",
    "address_1": "596W+972",
    "address_2": "Esquina Sur del Barrio Los Laureles",
    "website": "",
    "rating": 3.5,
    "reviews_count": 2,
    "thumbnail": "",
    "latitude": 10.1608931,
    "longitude": -83.604344,
    "type": "Christian church"
  },
  {
    "name": "Iglesia Catolica De Debasa",
    "address_1": "884W+MC9",
    "address_2": "Limón, Guácimo",
    "website": "",
    "rating": "",
    "reviews_count": "",
    "thumbnail": "",
    "latitude": 10.3066576,
    "longitude": -83.6538754,
    "type": "Catholic church"
  },
  {
    "name": "Iglesia Católica Apostólica Romana en Finca Perdiz",
    "address_1": "86RG+Q3F",
    "address_2": "C. Fallas",
    "website": "",
    "rating": "",
    "reviews_count": "",
    "thumbnail": "",
    "latitude": 10.3419269,
    "longitude": -83.7748417,
    "type": "Church"
  },
  {
    "name": "Casa Cural",
    "address_1": "Iglesia Sagrado Corazon de Jesus.",
    "address_2": "Limón, Guápiles",
    "website": "",
    "rating": 4.6,
    "reviews_count": 17,
    "thumbnail": "https://lh5.googleusercontent.com/p/AF1QipPw-pFH3HO3eSFFvglSOjnu7ofsSdaPfVWXWLeb",
    "latitude": 10.2145105,
    "longitude": -83.7893611,
    "type": "Religious organization"
  },
  {
    "name": "Iglesia Evangélica Asambleas de Dios",
    "address_1": "96V7+PQM",
    "address_2": "El Jardín, Limón, Pococí",
    "website": "",
    "rating": "",
    "reviews_count": "",
    "thumbnail": "",
    "latitude": 10.3943267,
    "longitude": -83.7855919,
    "type": "Church"
  },
  {
    "name": "La Jerusalem",
    "address_1": "76FF+X7F",
    "address_2": "Barrio Cristo Rey, Limón, Rita",
    "website": "",
    "rating": 5,
    "reviews_count": 1,
    "thumbnail": "https://lh5.googleusercontent.com/p/AF1QipMgAddiNR5Chqiqs5Q4i6uV2-Um7ZdrjynFMSAa",
    "latitude": 10.2749283,
    "longitude": -83.7768154,
    "type": "Church"
  },
  {
    "name": "Iglesia Adventista Peniel",
    "address_1": "66P7+WJ6",
    "address_2": "Unnamed Road",
    "website": "",
    "rating": 5,
    "reviews_count": 2,
    "thumbnail": "",
    "latitude": 10.2372972,
    "longitude": -83.7859993,
    "type": "Seventh-day Adventist church"
  },
  {
    "name": "Iglesia de Cartagena",
    "address_1": "7986+P2W",
    "address_2": "C. Cartagena",
    "website": "",
    "rating": "",
    "reviews_count": "",
    "thumbnail": "https://lh5.googleusercontent.com/p/AF1QipPpLSpMyFmyNS1V7yAkorkrwFZjqXjZNKTvaqS9",
    "latitude": 10.2668567,
    "longitude": -83.6399138,
    "type": "Catholic church"
  },
  {
    "name": "Iglesia Adventista del Séptimo Día Movimiento de Reforma Cariari",
    "address_1": "97GH+W9W",
    "address_2": "C. Campo Tres",
    "website": "",
    "rating": "",
    "reviews_count": "",
    "thumbnail": "",
    "latitude": 10.3773667,
    "longitude": -83.7215482,
    "type": "Church"
  },
  {
    "name": "Templo de Los Ángeles",
    "address_1": "C76M+M3J",
    "address_2": "Limón Province, Los Angeles de Cariari",
    "website": "",
    "rating": 5,
    "reviews_count": 4,
    "thumbnail": "https://lh5.googleusercontent.com/p/AF1QipNNrSc0G-WCdKxb9DbkGJD4lq36ZNgBzeXjORSa",
    "latitude": 10.4117101,
    "longitude": -83.7173622,
    "type": "Catholic church"
  },
  {
    "name": "Iglesia Shekinah",
    "address_1": "6885+8H5",
    "address_2": "Barrio Los Geranios, Limón, Guácimo",
    "website": "m.facebook.com",
    "rating": 5,
    "reviews_count": 12,
    "thumbnail": "https://lh5.googleusercontent.com/p/AF1QipM8ZQRJEgsREcyc_11C0cyDQFW2GmbT_H7alwkz",
    "latitude": 10.2157574,
    "longitude": -83.6910283,
    "type": "Evangelical church"
  },
  {
    "name": "Iglesia Metodista Guapiles",
    "address_1": "56XG+3F7",
    "address_2": "C. Tablon",
    "website": "",
    "rating": 4.5,
    "reviews_count": 2,
    "thumbnail": "https://lh5.googleusercontent.com/p/AF1QipP2QewNpExGcA5LKK3CFKp2CfPQijFa5vm3YSQS",
    "latitude": 10.1976659,
    "longitude": -83.7738147,
    "type": "United Methodist church"
  },
  {
    "name": "Iglesia Los Ceibos",
    "address_1": "4C33+H84",
    "address_2": "Limón, Los Ceibos",
    "website": "",
    "rating": 5,
    "reviews_count": 1,
    "thumbnail": "https://lh5.googleusercontent.com/p/AF1QipMxkIBwiUbhu-JEs45dEipT3O7643V5hsCF9_Al",
    "latitude": 10.1038827,
    "longitude": -83.5966712,
    "type": "Catholic church"
  },
  {
    "name": "Iglesia Católica Edén",
    "address_1": "67PH+FRF",
    "address_2": "Limón Province, Guacimo",
    "website": "",
    "rating": 5,
    "reviews_count": 5,
    "thumbnail": "https://lh5.googleusercontent.com/p/AF1QipPth3eZsSP_WZW1DTR_w9KGNY3OXDmrs2vxWWlS",
    "latitude": 10.2361781,
    "longitude": -83.7204649,
    "type": "Church"
  },
  {
    "name": "Iglesia de San Isidro",
    "address_1": "4C8F+M2C",
    "address_2": 415,
    "website": "",
    "rating": 4.6,
    "reviews_count": 10,
    "thumbnail": "https://lh5.googleusercontent.com/p/AF1QipPgwP_zdUCgtJnpfzk_25ua0Dk5J_FyH-rMaqOJ",
    "latitude": 10.1166894,
    "longitude": -83.577472,
    "type": "Catholic church"
  },
  {
    "name": "Iglesia Doctrina Viva De Jesucristo Cariari",
    "address_1": "9768+WMG",
    "address_2": "Limón, Roxana",
    "website": "",
    "rating": 3,
    "reviews_count": 2,
    "thumbnail": "",
    "latitude": 10.3623126,
    "longitude": -83.7332989,
    "type": "Church"
  },
  {
    "name": "Iglesia Adventista del Séptimo Día",
    "address_1": "94RW+HGW",
    "address_2": "San Gerardo, Limón Province, Pococí",
    "website": "",
    "rating": "",
    "reviews_count": "",
    "thumbnail": "",
    "latitude": 10.3914897,
    "longitude": -83.8536664,
    "type": "Church"
  },
  {
    "name": "Vida Abundante Pococí",
    "address_1": "6656+6WX",
    "address_2": "Unnamed Road",
    "website": "vidapococi.org",
    "rating": 5,
    "reviews_count": 1,
    "thumbnail": "https://lh5.googleusercontent.com/p/AF1QipPb1b-PTywrNXEzKpFUNh_nqIwslwOnehtWeF3k",
    "latitude": 10.2081059,
    "longitude": -83.7876287,
    "type": "Christian church"
  },
  {
    "name": "Iglesia Católica San Gerardo",
    "address_1": "94QR+XRG",
    "address_2": "San Gerardo, Limón, Pococí",
    "website": "",
    "rating": 3.7,
    "reviews_count": 7,
    "thumbnail": "",
    "latitude": 10.3899278,
    "longitude": -83.8579227,
    "type": "Catholic church"
  },
  {
    "name": "Iglesia de Grano de Oro",
    "address_1": "4C5H+F29",
    "address_2": "Limón, Grano de Oro",
    "website": "",
    "rating": "",
    "reviews_count": "",
    "thumbnail": "https://lh5.googleusercontent.com/p/AF1QipP5Ci82h4r6QBQ5uhexyNstDuGlgQ0rr0OCTWBi",
    "latitude": 10.1086601,
    "longitude": -83.5723949,
    "type": "Catholic church"
  },
  {
    "name": "Iglesia de Suerre",
    "address_1": "56PX+H6W",
    "address_2": "Unnamed Road",
    "website": "",
    "rating": 4.8,
    "reviews_count": 10,
    "thumbnail": "https://lh5.googleusercontent.com/p/AF1QipMDUX95Zvp18CACyCDgY_28Q_iBrPFoXTg5t1P8",
    "latitude": 10.1864839,
    "longitude": -83.7519104,
    "type": "Catholic church"
  },
  {
    "name": "Iglesia Adventista De Semillero",
    "address_1": "97MJ+JC9",
    "address_2": "Limón Province, Roxana",
    "website": "",
    "rating": 4,
    "reviews_count": 1,
    "thumbnail": "https://lh5.googleusercontent.com/p/AF1QipPW5cpk1JQY-tBFlGtwjYQZJBMXaOXB1PbUGDNk",
    "latitude": 10.384047,
    "longitude": -83.7188989,
    "type": "Church"
  },
  {
    "name": "Iglesia de Dios restauración espiritual",
    "address_1": "200 mtrs escuela San Gerardo",
    "address_2": "Ticabán, Pococí",
    "website": "",
    "rating": "",
    "reviews_count": "",
    "thumbnail": "",
    "latitude": 10.3987197,
    "longitude": -83.8327182,
    "type": "Place of worship"
  },
  {
    "name": "Iglesia Asambleas de Dios Pocora",
    "address_1": "599R+WPM",
    "address_2": "Pocora Sur, Limón, Pocora",
    "website": "",
    "rating": 5,
    "reviews_count": 2,
    "thumbnail": "https://lh5.googleusercontent.com/p/AF1QipPcsIvUDChDeXWfTYmOYH6MMZvyGeIJM1QOOYrN",
    "latitude": 10.16985,
    "longitude": -83.608193,
    "type": "Christian church"
  },
  {
    "name": "Iglesia Biblica Oasis de Bendición",
    "address_1": "678R+5G",
    "address_2": "Vivero isamber",
    "website": "",
    "rating": 5,
    "reviews_count": 2,
    "thumbnail": "https://lh5.googleusercontent.com/p/AF1QipPE3CCHK8zl57Ifb6k_w5bcYeZHnZHHZ0HLG5zV",
    "latitude": 10.2166462,
    "longitude": -83.7083206,
    "type": "Church"
  },
  {
    "name": "Iglesia de Florida",
    "address_1": "3CVH+69H",
    "address_2": "Limón, Florida",
    "website": "",
    "rating": 4.2,
    "reviews_count": 5,
    "thumbnail": "https://lh5.googleusercontent.com/p/AF1QipMxUy33zzYdDbNoJymOukDnyJkoUl500BByj_fS",
    "latitude": 10.093064,
    "longitude": -83.5715041,
    "type": "Catholic church"
  },
  {
    "name": "Iglesia de Perla",
    "address_1": "58JC+X4G",
    "address_2": "Limón, Guácimo",
    "website": "",
    "rating": "",
    "reviews_count": "",
    "thumbnail": "https://lh5.googleusercontent.com/p/AF1QipP50jBE_1n7aOs5PqG3bAcZ4X464SI-5PhSfV1A",
    "latitude": 10.1824298,
    "longitude": -83.6796568,
    "type": "Catholic church"
  },
  {
    "name": "Iglesia de Guácimo",
    "address_1": "6858+QP5",
    "address_2": "Costado oeste del parque central de Guácimo",
    "website": "",
    "rating": 5,
    "reviews_count": 3,
    "thumbnail": "https://lh5.googleusercontent.com/p/AF1QipOn8WmA8IeTsgNRuVplUCgPZ0B6y_kaNH1b3ePH",
    "latitude": 10.2093801,
    "longitude": -83.6831401,
    "type": "Catholic church"
  },
  {
    "name": "Salón Parroquial de Guápiles",
    "address_1": "6685+398",
    "address_2": "Limón, Guápiles",
    "website": "",
    "rating": "",
    "reviews_count": "",
    "thumbnail": "",
    "latitude": 10.2151605,
    "longitude": -83.7915379,
    "type": "Spiritist center"
  },
  {
    "name": "Iglesia Natanael",
    "address_1": "4C59+5HC",
    "address_2": "de C.R",
    "website": "",
    "rating": 5,
    "reviews_count": 6,
    "thumbnail": "https://lh5.googleusercontent.com/p/AF1QipNvpWGca-mSIVASEYqK7_b1qwTYzJUwEWKTDw5O",
    "latitude": 10.1079376,
    "longitude": -83.5811071,
    "type": "Evangelical church"
  },
  {
    "name": "Iglesia Episcopal",
    "address_1": "6869+94F",
    "address_2": "Barrio El INVU, Limón, Guácimo",
    "website": "",
    "rating": 5,
    "reviews_count": 2,
    "thumbnail": "",
    "latitude": 10.210929,
    "longitude": -83.6821903,
    "type": "Episcopal church"
  },
  {
    "name": "Iglesia La Nueva Jerusalén",
    "address_1": "C77P+MV7",
    "address_2": "Unnamed Road",
    "website": "",
    "rating": "",
    "reviews_count": "",
    "thumbnail": "",
    "latitude": 10.414162,
    "longitude": -83.7128166,
    "type": "Church"
  },
  {
    "name": "Iglesia Catolica De Las Palmitas",
    "address_1": "F72V+HMP",
    "address_2": "Limón Province, Roxana",
    "website": "",
    "rating": 3.7,
    "reviews_count": 3,
    "thumbnail": "",
    "latitude": 10.4514694,
    "longitude": -83.7057899,
    "type": "Catholic church"
  },
  {
    "name": "Bataan Iglesia Católica",
    "address_1": "3MP5+3GH",
    "address_2": "Limón, Batán",
    "website": "",
    "rating": 4.4,
    "reviews_count": 46,
    "thumbnail": "https://lh5.googleusercontent.com/p/AF1QipMDD0RWVC73iSLg1me-p5kEvkbcSbMGSXoQIkwu",
    "latitude": 10.0851972,
    "longitude": -83.3411318,
    "type": "Church"
  },
  {
    "name": "Iglesia Evangelica, Evangelio Completo",
    "address_1": "8CJ2+6H6",
    "address_2": "pococi",
    "website": "",
    "rating": 4.5,
    "reviews_count": 2,
    "thumbnail": "",
    "latitude": 10.3305449,
    "longitude": -83.598594,
    "type": "Evangelical church"
  },
  {
    "name": "Iglesia Adventista Del Setimo Dia.",
    "address_1": "97MJ+JC9",
    "address_2": "Limón Province, Roxana",
    "website": "",
    "rating": 4.5,
    "reviews_count": 2,
    "thumbnail": "https://lh5.googleusercontent.com/p/AF1QipOrwAVBms_-jdsF8FcIYbDwz6K8LjRTUJeSIz8L",
    "latitude": 10.3840432,
    "longitude": -83.7188889,
    "type": "Christian church"
  },
  {
    "name": "Iglesia Shekina",
    "address_1": "3MH7+3XR",
    "address_2": "Barrio Ramal Siete, Limón, Batán",
    "website": "",
    "rating": 5,
    "reviews_count": 3,
    "thumbnail": "",
    "latitude": 10.0777479,
    "longitude": -83.3351193,
    "type": "Apostolic church"
  },
  {
    "name": "San Antonio Church",
    "address_1": "29XM+5XW",
    "address_2": 415,
    "website": "",
    "rating": 4.8,
    "reviews_count": 4,
    "thumbnail": "https://lh5.googleusercontent.com/p/AF1QipM-LMKAzmLkEydHwZP0Gzl_csyBz3E0G89JU1j8",
    "latitude": 10.0479997,
    "longitude": -83.615037,
    "type": "Catholic church"
  },
  {
    "name": "Iglesia Doctrina Viva De Jesucristo 4 Esquinas",
    "address_1": "F83H+4V3",
    "address_2": "Limón, Cuatro Esquinas",
    "website": "",
    "rating": 5,
    "reviews_count": 1,
    "thumbnail": "",
    "latitude": 10.4527694,
    "longitude": -83.6703368,
    "type": "Church"
  },
  {
    "name": "Iglesia católica Casorla",
    "address_1": "293X+72C",
    "address_2": "Limón, El Llano de Florida",
    "website": "",
    "rating": 5,
    "reviews_count": 1,
    "thumbnail": "https://lh5.googleusercontent.com/p/AF1QipPYTIfzsMrgHwCi83tzlbx4jjh2jx_FBvHlbVEl",
    "latitude": 10.0031841,
    "longitude": -83.6024728,
    "type": "Catholic church"
  },
  {
    "name": "Iglesia Movimiento Misionero Mundial",
    "address_1": "3MP6+62C",
    "address_2": "Limón, Batán",
    "website": "",
    "rating": 5,
    "reviews_count": 4,
    "thumbnail": "https://lh5.googleusercontent.com/p/AF1QipM2_Sz8vfyc9dOg5WReDyTjdnDQSj97nY_lFR9m",
    "latitude": 10.0855744,
    "longitude": -83.3399747,
    "type": "Pentecostal church"
  },
  {
    "name": "Iglesia Cristiana Mensajeros del Rey",
    "address_1": "De la Radio Nacional de España, 150 mts al oeste y 200 mts al sur contiguo a taller de buses de Coopetraca Limón",
    "address_2": "Pococí",
    "website": "",
    "rating": "",
    "reviews_count": "",
    "thumbnail": "https://lh5.googleusercontent.com/p/AF1QipND2kXG0ki3dr2a-AKGZIOSMTEGr0YwBCqwiK2k",
    "latitude": 10.3602177,
    "longitude": -83.7453,
    "type": "Church"
  },
  {
    "name": "Iglesia La luz del mundo El Humo",
    "address_1": "77F8+R5Q",
    "address_2": "Limón Province, Roxana",
    "website": "",
    "rating": 5,
    "reviews_count": 1,
    "thumbnail": "https://lh5.googleusercontent.com/p/AF1QipPf87KPVNuap0iijyWbYra9gX9Y7DYZTFOV1L9J",
    "latitude": 10.2745974,
    "longitude": -83.7345006,
    "type": "Place of worship"
  },
  {
    "name": "Iglesia Católica Duacarí 5",
    "address_1": "884W+MF2",
    "address_2": "Limón, Guácimo",
    "website": "",
    "rating": 5,
    "reviews_count": 2,
    "thumbnail": "https://lh5.googleusercontent.com/p/AF1QipN23Is_-kTkZvS2LuMpKLd0PhUSUaq0gaMZR2zH",
    "latitude": 10.3066447,
    "longitude": -83.6538606,
    "type": "Catholic church"
  },
  {
    "name": "Iglesia Las Mercedes",
    "address_1": "59GP+FPX",
    "address_2": "Limón, Mercedes",
    "website": "",
    "rating": 5,
    "reviews_count": 1,
    "thumbnail": "https://lh5.googleusercontent.com/p/AF1QipPIrYNfU1dvLly8qgD2Zp_ngAbAvveaUi7IgiF2",
    "latitude": 10.1762484,
    "longitude": -83.6131454,
    "type": "Catholic church"
  },
  {
    "name": "Iglesia de Dios Evangelio Completo Carambola",
    "address_1": "79JP+J8F",
    "address_2": 248,
    "website": "",
    "rating": 4.9,
    "reviews_count": 9,
    "thumbnail": "https://lh5.googleusercontent.com/p/AF1QipNRAO42102DHTmetwHyFTzTwJkfVoVyYh3XjvYz",
    "latitude": 10.2815745,
    "longitude": -83.6142179,
    "type": "Church"
  },
  {
    "name": "Iglesia De Dios Evangelio Completo, Espíritu Santo",
    "address_1": "9778+P6J",
    "address_2": "Unnamed Road, Limón Limón",
    "website": "facebook.com",
    "rating": 5,
    "reviews_count": 3,
    "thumbnail": "https://lh5.googleusercontent.com/p/AF1QipO0nNGxAeYH6tyFGhlal2H7bczCaRV-smYRi7m5",
    "latitude": 10.3643422,
    "longitude": -83.7344874,
    "type": "Christian church"
  },
  {
    "name": "Iglesia de Mercedes",
    "address_1": "59FQ+XJ5",
    "address_2": "Limón Province, Mercedes",
    "website": "",
    "rating": 5,
    "reviews_count": 1,
    "thumbnail": "https://lh5.googleusercontent.com/p/AF1QipMzgOG_3KkcM3Hl5PKunjdygLaPwWLbB9bZmb_P",
    "latitude": 10.1748826,
    "longitude": -83.610903,
    "type": "Catholic church"
  },
  {
    "name": "Iglesia Centroamericana Getsemaní Siquirres",
    "address_1": "4G32+J8R",
    "address_2": "Barrio San Martín, Limón, Siquirres",
    "website": "",
    "rating": 4.5,
    "reviews_count": 23,
    "thumbnail": "https://lh5.googleusercontent.com/p/AF1QipOPwd7DNaUZ9VINlsv75ZSKUHC9lcLKzTAvdYtr",
    "latitude": 10.104106,
    "longitude": -83.4992236,
    "type": "Church"
  },
  {
    "name": "Iglesia Adventista del Séptimo Día, La Lidia",
    "address_1": "985P+VCC",
    "address_2": "Unnamed Road",
    "website": "",
    "rating": "",
    "reviews_count": "",
    "thumbnail": "",
    "latitude": 10.3596778,
    "longitude": -83.663996,
    "type": "Seventh-day Adventist church"
  },
  {
    "name": "Iglesia Católica Ojo de Agua",
    "address_1": "385R+4V4",
    "address_2": "Limón, Ojo de Agua",
    "website": "",
    "rating": 5,
    "reviews_count": 5,
    "thumbnail": "https://lh5.googleusercontent.com/p/AF1QipNlmrFQe-voJy2EDxr4Mqyub_nzT4ciPx-_BMpN",
    "latitude": 10.0577697,
    "longitude": -83.6578108,
    "type": "Catholic church"
  },
  {
    "name": "Iglesia la Luz Del Mundo",
    "address_1": "4F2X+867",
    "address_2": "Barrio La Amelia, Limón Province, Siquirres",
    "website": "",
    "rating": 4.7,
    "reviews_count": 30,
    "thumbnail": "https://lh5.googleusercontent.com/p/AF1QipMnk-tNUw5U9P194QJ-taHsMEiLq7cvpk76Cp2P",
    "latitude": 10.100791,
    "longitude": -83.5019457,
    "type": "Church"
  },
  {
    "name": "Iglesia De Dios Pentecostal Luis XV",
    "address_1": "77WP+VRM",
    "address_2": "Unnamed Road",
    "website": "",
    "rating": "",
    "reviews_count": "",
    "thumbnail": "https://lh5.googleusercontent.com/p/AF1QipMy_X_XXVZzFavHGtPQ5hAbstWIhBpruYHncAqj",
    "latitude": 10.2972233,
    "longitude": -83.7129497,
    "type": "Evangelical church"
  },
  {
    "name": "Iglesia Adventista del Séptimo Día - Palmitas",
    "address_1": "F73W+PFJ",
    "address_2": "Limón, Roxana",
    "website": "",
    "rating": 3.7,
    "reviews_count": 3,
    "thumbnail": "",
    "latitude": 10.4543449,
    "longitude": -83.7038647,
    "type": "Seventh-day Adventist church"
  },
  {
    "name": "Iglesia Adventista Pocora",
    "address_1": "59CW+7HX",
    "address_2": "Limón, Pocora",
    "website": "",
    "rating": "",
    "reviews_count": "",
    "thumbnail": "",
    "latitude": 10.1707333,
    "longitude": -83.6035001,
    "type": "Church"
  },
  {
    "name": "Iglesia San Luis",
    "address_1": "68VQ+QMM",
    "address_2": "Ruta Nacional Secundaria 248",
    "website": "",
    "rating": 3.9,
    "reviews_count": 15,
    "thumbnail": "https://lh5.googleusercontent.com/p/AF1QipPJLW0HjIuCGO8Otz4DW-A7OxU-pM7AjCRzGJKR",
    "latitude": 10.2444591,
    "longitude": -83.6608297,
    "type": "Catholic church"
  },
  {
    "name": "Iglesia Adventista del Séptimo Día - San Francisco",
    "address_1": "HFJG+76R",
    "address_2": "San Francisco de Tortuguero, Limón, Pococí",
    "website": "",
    "rating": "",
    "reviews_count": "",
    "thumbnail": "",
    "latitude": 10.5807382,
    "longitude": -83.5244829,
    "type": "Seventh-day Adventist church"
  },
  {
    "name": "Iglesia de Escocia",
    "address_1": "6CR8+QMQ",
    "address_2": "Limón, Río Jiménez",
    "website": "",
    "rating": "",
    "reviews_count": "",
    "thumbnail": "https://lh5.googleusercontent.com/p/AF1QipPPfp9o8cCWJttM3OLcM3Vv6yDwG5Abl8Hrs_Uz",
    "latitude": 10.2419644,
    "longitude": -83.5832551,
    "type": "Catholic church"
  },
  {
    "name": "Parroquia Inmaculada Concepción de Maria, Guácimo",
    "address_1": "663F+79C",
    "address_2": "Limón, Jiménez",
    "website": "",
    "rating": 5,
    "reviews_count": 1,
    "thumbnail": "https://lh5.googleusercontent.com/p/AF1QipNGCyYlKz96xHYc8FpFBKs_wu5cT43HlVN0pFj_",
    "latitude": 10.2031759,
    "longitude": -83.7766221,
    "type": "Parish"
  },
  {
    "name": "Iglesia Adventista del Septimo Día",
    "address_1": "C89W+GQP",
    "address_2": "La Maravilla - San Francisco",
    "website": "",
    "rating": "",
    "reviews_count": "",
    "thumbnail": "",
    "latitude": 10.4188425,
    "longitude": -83.6530566,
    "type": "Seventh-day Adventist church"
  },
  {
    "name": "Iglesia De Dios Evangelio Completo",
    "address_1": "76H7+MHF",
    "address_2": "la cerca de",
    "website": "",
    "rating": 4.3,
    "reviews_count": 4,
    "thumbnail": "https://lh5.googleusercontent.com/p/AF1QipNcg2iJlVZQGaWTu3_yNNrUc9wUl3uJeYe5mbay",
    "latitude": 10.279194,
    "longitude": -83.786065,
    "type": "Church"
  },
  {
    "name": "Iglesia Bautista De 28 Millas",
    "address_1": "3JQF+X3P",
    "address_2": "Limón Province, Veintiocho Millas",
    "website": "",
    "rating": 5,
    "reviews_count": 1,
    "thumbnail": "",
    "latitude": 10.0899661,
    "longitude": -83.3773037,
    "type": "Baptist church"
  },
  {
    "name": "Iglesia de Dios Jesucristo es el Señor el es el Rey.",
    "address_1": "88FW+HM4",
    "address_2": "Limón",
    "website": "",
    "rating": 3.4,
    "reviews_count": 5,
    "thumbnail": "https://lh5.googleusercontent.com/p/AF1QipPSRnwhhhXr4hJ_HQZJgr3ymypKFJN5O1h_7ozg",
    "latitude": 10.323885,
    "longitude": -83.653306,
    "type": "Church"
  },
  {
    "name": "Iglesia Cristiana Cristo Vive",
    "address_1": "Barrio Pueblo Nuevo, Limón, Estrada",
    "address_2": "Costa Rica",
    "website": "",
    "rating": 5,
    "reviews_count": 4,
    "thumbnail": "https://lh5.googleusercontent.com/p/AF1QipP8LrbgyoHtEGqipY_8tLCe5Gtcetjfu7_yGQ8B",
    "latitude": 10.0611739,
    "longitude": -83.2829104,
    "type": "Evangelical church"
  },
  {
    "name": "Iglesia De Dios Evangelio Completo Luis XV",
    "address_1": "872Q+V6G",
    "address_2": "Limón, Roxana",
    "website": "",
    "rating": 5,
    "reviews_count": 4,
    "thumbnail": "https://lh5.googleusercontent.com/p/AF1QipM8Uqw8IIfYlw0eSNgvN1U5SmlFDUX03a-hmqMF",
    "latitude": 10.3021806,
    "longitude": -83.7119298,
    "type": "Evangelical church"
  },
  {
    "name": "Iglesia de Nueva Esperanza",
    "address_1": "6H37+P52",
    "address_2": "Limón, Siquirres",
    "website": "",
    "rating": 5,
    "reviews_count": 1,
    "thumbnail": "https://lh5.googleusercontent.com/p/AF1QipPwaw82hsOg7mnsM5XMbGhAGewxCFb5qI2fviyQ",
    "latitude": 10.2042697,
    "longitude": -83.4370989,
    "type": "Catholic church"
  },
  {
    "name": "Iglesia de Luisiana",
    "address_1": "4FWH+5R6",
    "address_2": "Limón, Tres Millas",
    "website": "",
    "rating": "",
    "reviews_count": "",
    "thumbnail": "https://lh5.googleusercontent.com/p/AF1QipOFxEtq6Jc4_AQ1i_sQ3k3Jd83ad-jQ0QQJZEjY",
    "latitude": 10.1454027,
    "longitude": -83.5205,
    "type": "Catholic church"
  },
  {
    "name": "Iglesia de Ángeles",
    "address_1": "7FV8+CF5",
    "address_2": "Limón, Los Angeles de Río Jiménez",
    "website": "",
    "rating": 4,
    "reviews_count": 1,
    "thumbnail": "https://lh5.googleusercontent.com/p/AF1QipPCIWFjzjjljmvsKFAo8v10ZRvzH4jvAploZU-6",
    "latitude": 10.2935238,
    "longitude": -83.5337713,
    "type": "Catholic church"
  },
  {
    "name": "Iglesia de Betania",
    "address_1": "3GW5+9X9",
    "address_2": "Barrio Betania, Limón",
    "website": "",
    "rating": "",
    "reviews_count": "",
    "thumbnail": "https://lh5.googleusercontent.com/p/AF1QipPR3V95qZqvgZ0iJhRlBDvMqUl6_kMECtwu39lq",
    "latitude": 10.0959039,
    "longitude": -83.490001,
    "type": "Catholic church"
  },
  {
    "name": "Iglesia de Indiana Dos",
    "address_1": "4G8C+282",
    "address_2": "Indiana Dos, Limón",
    "website": "",
    "rating": "",
    "reviews_count": "",
    "thumbnail": "https://lh5.googleusercontent.com/p/AF1QipO9_jEStabkNIEZcW62VmxqwFf75GHKENeDh1DM",
    "latitude": 10.1150145,
    "longitude": -83.4792321,
    "type": "Catholic church"
  },
  {
    "name": "Iglesia Oasis de vida",
    "address_1": "6782+QWP",
    "address_2": "Limón Province, Jiménez",
    "website": "iglesiaoasisdevida.org",
    "rating": 1,
    "reviews_count": 1,
    "thumbnail": "https://lh5.googleusercontent.com/p/AF1QipNCztyyx7NX2xcH4ZGHER1-au0gqXKsQHrM5Red",
    "latitude": 10.2169512,
    "longitude": -83.7476839,
    "type": "Christian church"
  },
  {
    "name": "Iglesia Altos de Germania",
    "address_1": "4CM9+H97",
    "address_2": "Limón, Altos de Germania",
    "website": "",
    "rating": "",
    "reviews_count": "",
    "thumbnail": "https://lh5.googleusercontent.com/p/AF1QipNkRNKvlZ7gd5M-622F6-mFvcN2Ruck7uv15hYC",
    "latitude": 10.1339097,
    "longitude": -83.581575,
    "type": "Catholic church"
  },
  {
    "name": "Iglesia de Cristo Guacimo",
    "address_1": "686F+QW6",
    "address_2": "Barrio El Colegio, Limón Province, Guacimo",
    "website": "",
    "rating": 4.8,
    "reviews_count": 5,
    "thumbnail": "",
    "latitude": 10.211904,
    "longitude": -83.6752323,
    "type": "Church of Christ"
  },
  {
    "name": "Iglesia La Luz Del Mundo",
    "address_1": "8CM2+RQW",
    "address_2": "Limón Province, Pueblo Nuevo de Duacarí",
    "website": "",
    "rating": 4.6,
    "reviews_count": 17,
    "thumbnail": "https://lh5.googleusercontent.com/p/AF1QipPzs4sHADvIQ7DItr16-5ORYtpkBb6NioJfZtgq",
    "latitude": 10.334607,
    "longitude": -83.5980506,
    "type": "Place of worship"
  },
  {
    "name": "Iglesia Adventista del Septimo Día Llano Bonito",
    "address_1": "98MX+WQ8",
    "address_2": "Unnamed Road",
    "website": "",
    "rating": 5,
    "reviews_count": 1,
    "thumbnail": "",
    "latitude": 10.3847941,
    "longitude": -83.6505501,
    "type": "Seventh-day Adventist church"
  },
  {
    "name": "Iglesia Casa de Dios Luz a las Naciones",
    "address_1": "4C7C+5GG",
    "address_2": "Limón, Grano de Oro",
    "website": "",
    "rating": 1,
    "reviews_count": 1,
    "thumbnail": "",
    "latitude": 10.1129339,
    "longitude": -83.5786794,
    "type": "Christian church"
  },
  {
    "name": "Parroquia San José Patriarca de Siquirres",
    "address_1": "3FWV+Q45",
    "address_2": "Limón, Siquirres",
    "website": "",
    "rating": 4.8,
    "reviews_count": 66,
    "thumbnail": "https://lh5.googleusercontent.com/p/AF1QipMzwTV0z2fuSHn1K6VaCpL-f6bAsMFbVoIyayF2",
    "latitude": 10.0968926,
    "longitude": -83.5071357,
    "type": "Catholic church"
  },
  {
    "name": "Iglesia Visión de Aguila",
    "address_1": "69WX+P73",
    "address_2": "Limón Province, Río Jiménez",
    "website": "",
    "rating": "",
    "reviews_count": "",
    "thumbnail": "https://lh5.googleusercontent.com/p/AF1QipOoMsDuMaNVYGV6NlUxBHwX4noB10G9TRGscnsq",
    "latitude": 10.2467663,
    "longitude": -83.6018341,
    "type": "Place of worship"
  },
  {
    "name": "Iglesia Bíblica De Reconciliación Dios De Lo Imposible Indiana Dos",
    "address_1": "Indiana Dos, Limón, Siquirres",
    "address_2": 70301,
    "website": "",
    "rating": "",
    "reviews_count": "",
    "thumbnail": "https://lh5.googleusercontent.com/p/AF1QipNgKD9r84ngwESByD2a6YMuKgqf8U7-0CLCOPiU",
    "latitude": 10.1156284,
    "longitude": -83.4781255,
    "type": "Evangelical church"
  },
  {
    "name": "Iglesia católica Linda Vista",
    "address_1": "XCQH+CW4",
    "address_2": "Limón, Linda Vista",
    "website": "",
    "rating": 3,
    "reviews_count": 3,
    "thumbnail": "https://lh5.googleusercontent.com/p/AF1QipPmyWH-llUA5VgXOQc1Xd8396aX2MBjd1JBhxAD",
    "latitude": 9.9885029,
    "longitude": -83.5701617,
    "type": "Catholic church"
  },
  {
    "name": "Iglesia La Luz Del Mundo",
    "address_1": "F82J+M5M",
    "address_2": "Limón Province, Cuatro Esquinas",
    "website": "",
    "rating": 5,
    "reviews_count": 2,
    "thumbnail": "https://lh5.googleusercontent.com/p/AF1QipN4gBYtUnyHvWf1S1yiI5j1CA5jGQ_19vF5VfZ2",
    "latitude": 10.451706,
    "longitude": -83.6695848,
    "type": "Place of worship"
  },
  {
    "name": "Iglesia Cristiana (Discípulos de Cristo) en Siquirres",
    "address_1": 806,
    "address_2": "Limón Province, Siquirres",
    "website": "",
    "rating": 4.4,
    "reviews_count": 27,
    "thumbnail": "https://lh5.googleusercontent.com/p/AF1QipPeTVxYUiRP6BPvRc2HYTQmwg02-Ok8-CXSQeiS",
    "latitude": 10.1021948,
    "longitude": -83.5090658,
    "type": "Church"
  },
  {
    "name": "Iglesia de Indiana Tres",
    "address_1": "4GHV+M64",
    "address_2": "Indiana Tres, Limón",
    "website": "",
    "rating": "",
    "reviews_count": "",
    "thumbnail": "https://lh5.googleusercontent.com/p/AF1QipM5dPaejiLnHCD-ajCHDgI6l0Cq5XicM-IQzwWR",
    "latitude": 10.1291284,
    "longitude": -83.4569163,
    "type": "Catholic church"
  },
  {
    "name": "Iglesia Monte De Los Olivos",
    "address_1": "4HW9+8MH",
    "address_2": "Limón, Cultivez",
    "website": "",
    "rating": "",
    "reviews_count": "",
    "thumbnail": "",
    "latitude": 10.1458,
    "longitude": -83.430779,
    "type": "Church"
  },
  {
    "name": "Iglesia Advestista En Campo Dos.",
    "address_1": "C845+75X",
    "address_2": "Limón, Roxana",
    "website": "",
    "rating": 3.5,
    "reviews_count": 4,
    "thumbnail": "",
    "latitude": 10.4057337,
    "longitude": -83.6920036,
    "type": "Seventh-day Adventist church"
  },
  {
    "name": "Iglesia Adventista Séptimo Día Bataán",
    "address_1": "3MM7+F9F",
    "address_2": "Barrio Cacao, Limón, Batán",
    "website": "",
    "rating": 4.7,
    "reviews_count": 6,
    "thumbnail": "https://lh5.googleusercontent.com/p/AF1QipOquT1_dFbClcu4HcVCx-Wk_4hjeTQKfFAIvf88",
    "latitude": 10.0836907,
    "longitude": -83.3365899,
    "type": "Seventh-day Adventist church"
  },
  {
    "name": "Iglesia Adventista del Séptimo Día - Los Ángeles",
    "address_1": "C76P+VPJ",
    "address_2": "Limón, Los Angeles de Cariari",
    "website": "",
    "rating": 5,
    "reviews_count": 4,
    "thumbnail": "",
    "latitude": 10.4122225,
    "longitude": -83.7132375,
    "type": "Seventh-day Adventist church"
  },
  {
    "name": "Iglesia Evangélica Roca Eterna",
    "address_1": "568G+WQ9",
    "address_2": "Limón, Jiménez",
    "website": "",
    "rating": 5,
    "reviews_count": 2,
    "thumbnail": "https://lh5.googleusercontent.com/p/AF1QipP4C4d3WCTyAunafuNgVd4e5fj8pOR23HiozlSv",
    "latitude": 10.1672961,
    "longitude": -83.7730237,
    "type": "Evangelical church"
  },
  {
    "name": "Iglesia Adventista del Séptimo Día",
    "address_1": "9765+P6J",
    "address_2": "Limón, Los Lagos",
    "website": "",
    "rating": 3.9,
    "reviews_count": 9,
    "thumbnail": "https://lh5.googleusercontent.com/p/AF1QipMbneJT0Xs_JWZldptjQK1DHKF1ajS3rsQIgmOh",
    "latitude": 10.361843,
    "longitude": -83.741997,
    "type": "Seventh-day Adventist church"
  },
  {
    "name": "La Iglesia de Jesucristo de los Santos de los Últimos Días",
    "address_1": "76H6+4HC",
    "address_2": "Limón, Rita",
    "website": "veniracristo.org",
    "rating": "",
    "reviews_count": "",
    "thumbnail": "",
    "latitude": 10.2778201,
    "longitude": -83.7885947,
    "type": "Church of Jesus Christ of Latter-day Saints"
  },
  {
    "name": "Iglesia Ebenezer misión de santidad cristiana",
    "address_1": "5GH9+H7X",
    "address_2": "Limón, San Cristobal",
    "website": "",
    "rating": 5,
    "reviews_count": 2,
    "thumbnail": "https://lh5.googleusercontent.com/p/AF1QipMDKwsjqCtMra2kHiKy3e3zHsYvAJW6ill0W9yy",
    "latitude": 10.1789759,
    "longitude": -83.4817612,
    "type": "Evangelical church"
  },
  {
    "name": "Peniel Baptist Church",
    "address_1": "6877+493",
    "address_2": "Limón Province, Guacimo",
    "website": "",
    "rating": 5,
    "reviews_count": 5,
    "thumbnail": "https://lh5.googleusercontent.com/p/AF1QipP8UoZ6N7UQb-80S5vBkgPLFG_WQH-JtWXcyAg",
    "latitude": 10.2127657,
    "longitude": -83.6865762,
    "type": "Church"
  },
  {
    "name": "Iglesia La Luz Del Mundo",
    "address_1": "3JPX+PMR",
    "address_2": "Barrio Cenízaro, Limón Province, Batán",
    "website": "",
    "rating": 4.6,
    "reviews_count": 5,
    "thumbnail": "https://lh5.googleusercontent.com/p/AF1QipNVBmV2lvs4jMkCvTlpDST3UdWZYKijQT_ckmia",
    "latitude": 10.0868715,
    "longitude": -83.3508598,
    "type": "Place of worship"
  },
  {
    "name": "Iglesia Adventista del Séptimo Día - Campo Dos",
    "address_1": "C845+76R",
    "address_2": "Cariari Limón Pococí, Calle Campo Tres",
    "website": "",
    "rating": "",
    "reviews_count": "",
    "thumbnail": "",
    "latitude": 10.4057413,
    "longitude": -83.6919976,
    "type": "Seventh-day Adventist church"
  },
  {
    "name": "Iglesia Adventista del Séptimo Día - La Rita",
    "address_1": "76G8+GRV",
    "address_2": "Limón, Rita",
    "website": "",
    "rating": 5,
    "reviews_count": 2,
    "thumbnail": "https://lh5.googleusercontent.com/p/AF1QipOJgwR4aJQ-JeOUEzk_C-lMlUf9w-PYhMlaRlsX",
    "latitude": 10.2763688,
    "longitude": -83.7829376,
    "type": "Seventh-day Adventist church"
  },
  {
    "name": "Iglesia de Pacuarito",
    "address_1": "4G3H+W4X",
    "address_2": "Limón, Pacuarito",
    "website": "",
    "rating": 4.5,
    "reviews_count": 2,
    "thumbnail": "",
    "latitude": 10.1048611,
    "longitude": -83.4721463,
    "type": "Catholic church"
  },
  {
    "name": "Iglesia Adventista",
    "address_1": "56F8+9FJ",
    "address_2": "C. Buenos Aires",
    "website": "",
    "rating": 4.5,
    "reviews_count": 2,
    "thumbnail": "https://lh5.googleusercontent.com/p/AF1QipNbEzlIWTR4Xgzw_GEjsChfNkP3ev_8oeO9CLUj",
    "latitude": 10.1734642,
    "longitude": -83.7838467,
    "type": "Seventh-day Adventist church"
  },
  {
    "name": "Iglesia Evangelio Complet Porvenir",
    "address_1": "F52J+3H2",
    "address_2": "El Porvenir, Limón, San Pedro",
    "website": "",
    "rating": 3.3,
    "reviews_count": 3,
    "thumbnail": "",
    "latitude": 10.4501406,
    "longitude": -83.8185982,
    "type": "Pentecostal church"
  },
  {
    "name": "Iglesia Adventista del Séptimo día Roxana",
    "address_1": "76HX+V9",
    "address_2": "Barrio Punta de Riel, Limón, Roxana",
    "website": "",
    "rating": "",
    "reviews_count": "",
    "thumbnail": "https://lh5.googleusercontent.com/p/AF1QipNKb6q12dJrFza1qbdw2QQs1VWN0IAb1OZCMc9W",
    "latitude": 10.2796755,
    "longitude": -83.7516245,
    "type": "Church"
  },
  {
    "name": "Iglesia NUEVO AMANECER",
    "address_1": "3FXR+744",
    "address_2": "Maria Auxiliadora, Limón, Siquirres",
    "website": "",
    "rating": "",
    "reviews_count": "",
    "thumbnail": "",
    "latitude": 10.0981388,
    "longitude": -83.5096859,
    "type": "Church"
  },
  {
    "name": "Iglesia Fe Y Amistad Para El Mundo",
    "address_1": "XVVJ+Q6X",
    "address_2": "Limón barrio, Heredia",
    "website": "",
    "rating": 5,
    "reviews_count": 3,
    "thumbnail": "https://lh5.googleusercontent.com/p/AF1QipPZDA1k-uZ_xgRTgK49Z7Tbyf9V9zQuHikOwLiI",
    "latitude": 9.9944848,
    "longitude": -84.1193876,
    "type": "Christian church"
  },
  {
    "name": "Iglesia Cristiana Discípulos de Cristo en Imperio 1",
    "address_1": "5HJH+WQ5",
    "address_2": "Unnamed Road, Limón",
    "website": "",
    "rating": 5,
    "reviews_count": 1,
    "thumbnail": "https://lh5.googleusercontent.com/p/AF1QipNeCnjX-8dFu1ZZnB-gZneSq-yuMUyCrh0KOiT1",
    "latitude": 10.1822742,
    "longitude": -83.4205044,
    "type": "Christian church"
  },
  {
    "name": "Iglesia Adventista del Séptimo Día",
    "address_1": "6868+8JV",
    "address_2": "Limón, Guácimo",
    "website": "",
    "rating": 5,
    "reviews_count": 1,
    "thumbnail": "",
    "latitude": 10.2108664,
    "longitude": -83.683456,
    "type": "Seventh-day Adventist church"
  },
  {
    "name": "Iglesia de Dios Evangelio Completo La Esperanza",
    "address_1": "2MGG+P6",
    "address_2": "Limón Province, San Miguel",
    "website": "",
    "rating": "",
    "reviews_count": "",
    "thumbnail": "",
    "latitude": 10.0268409,
    "longitude": -83.324419,
    "type": "Place of worship"
  },
  {
    "name": "Iglesia de San Isidro Labrador",
    "address_1": "29H4+8CF",
    "address_2": "Cam. San Isidro",
    "website": "",
    "rating": "",
    "reviews_count": "",
    "thumbnail": "https://lh5.googleusercontent.com/p/AF1QipOyMUxdJm7Y_EFEIAuMAm0umH69bCsqQgY64vYv",
    "latitude": 10.0283244,
    "longitude": -83.6439541,
    "type": "Church"
  },
  {
    "name": "Iglesia La Luz Del Mundo Cairo",
    "address_1": "4F95+2MF",
    "address_2": "Limón Province, Limón",
    "website": "",
    "rating": 4.3,
    "reviews_count": 22,
    "thumbnail": "https://lh5.googleusercontent.com/p/AF1QipOOVMGIk0-j9g8vbzYaiIztyWn0IuSSj_9R9Zg2",
    "latitude": 10.1175558,
    "longitude": -83.5408174,
    "type": "Church"
  },
  {
    "name": "Iglesia Católica de Boston",
    "address_1": "2P7W+H65",
    "address_2": "C. Zent - Boston - Cuba Creek",
    "website": "",
    "rating": 4,
    "reviews_count": 1,
    "thumbnail": "https://lh5.googleusercontent.com/p/AF1QipMKuoropX4AR868nlHihl8byHU_FgpmEVG0vlpq",
    "latitude": 10.0138887,
    "longitude": -83.2544053,
    "type": "Catholic church"
  },
  {
    "name": "Iglesia Pentecostal Unida",
    "address_1": "3PH5+G39",
    "address_2": "Av. 1",
    "website": "",
    "rating": "",
    "reviews_count": "",
    "thumbnail": "https://lh5.googleusercontent.com/p/AF1QipNylzZ1wOZmTFwk44sMEMsCYPsW6TexNhK3HFzE",
    "latitude": 10.0787765,
    "longitude": -83.292271,
    "type": "Church"
  },
  {
    "name": "Finca desenrredo",
    "address_1": "F8XG+8XR, Canta Gallo School",
    "address_2": "Las Palmitas - Canta Gallo",
    "website": "",
    "rating": "",
    "reviews_count": "",
    "thumbnail": "https://lh5.googleusercontent.com/p/AF1QipO4ZE0rFLZ2N4mb5073ewRZLY_ROAeUtBrqRlnF",
    "latitude": 10.4977788,
    "longitude": -83.6736642,
    "type": "Church"
  },
  {
    "name": "Iglesia Portón Iberia",
    "address_1": "498X+R82",
    "address_2": "Limón, El Portón Iberia",
    "website": "",
    "rating": "",
    "reviews_count": "",
    "thumbnail": "",
    "latitude": 10.1170679,
    "longitude": -83.6018366,
    "type": "Catholic church"
  },
  {
    "name": "Parroquia Nuestra Señora de Los Angeles",
    "address_1": "XVWJ+56J",
    "address_2": "Av. 8",
    "website": "facebook.com",
    "rating": 4.7,
    "reviews_count": 291,
    "thumbnail": "https://lh5.googleusercontent.com/p/AF1QipN8ZUbOiKbHy6t14sqEhM3aFBXTnbc_mm_lOzcs",
    "latitude": 9.9954537,
    "longitude": -84.1194911,
    "type": "Catholic church"
  },
  {
    "name": "Iglesia evangélica pentecostal",
    "address_1": "9792+2WR",
    "address_2": "Limón, Los Lagos",
    "website": "",
    "rating": "",
    "reviews_count": "",
    "thumbnail": "",
    "latitude": 10.3676218,
    "longitude": -83.7477262,
    "type": "Pentecostal church"
  },
  {
    "name": "Iglesia Metodista Pacuarito",
    "address_1": "Bar SUDEKA, 100 metros este, Pacuarito",
    "address_2": "Limón, Siquirres",
    "website": "",
    "rating": 5,
    "reviews_count": 1,
    "thumbnail": "",
    "latitude": 10.1031003,
    "longitude": -83.4697866,
    "type": "Methodist church"
  },
  {
    "name": "Iglesia Adventista del Séptimo Día - La Esperanza",
    "address_1": "C8MC+JG9",
    "address_2": "Limón, La Esperanza",
    "website": "",
    "rating": 4.3,
    "reviews_count": 8,
    "thumbnail": "https://lh5.googleusercontent.com/p/AF1QipNI0eYQXRyjXl6GPgsrlwgcp1uNhavr07Lc_spd",
    "latitude": 10.4340296,
    "longitude": -83.678643,
    "type": "Seventh-day Adventist church"
  }
]