[
  {
    "name": "El Patio Bar 0026 Grill",
    "address_1": "247 Limón Limón",
    "address_2": "Pococí",
    "website": "",
    "rating": 4.5,
    "reviews_count": 17,
    "thumbnail": "https://lh5.googleusercontent.com/p/AF1QipPFlTB7LLRA6i3od_gyiUO-YH7IJDMA0syQVtai",
    "latitude": 10.3592583,
    "longitude": -83.7339011,
    "type": "Restaurant"
  },
  {
    "name": "Lazo's restaurante",
    "address_1": "Astua Pirie,100metros norte de la iglesia catolica Limon",
    "address_2": "Astua y Pirie",
    "website": "lazos-restaurante.negocio.site",
    "rating": 4.6,
    "reviews_count": 18,
    "thumbnail": "https://lh5.googleusercontent.com/p/AF1QipO5P8YY98LghBisyGUn363T4grmm98sk-Mhpg3H",
    "latitude": 10.3445312,
    "longitude": -83.7379291,
    "type": "Delivery Chinese restaurant"
  },
  {
    "name": "Mi Niño",
    "address_1": "70205 Limon Pococi",
    "address_2": "Costa Rica",
    "website": "",
    "rating": 4.6,
    "reviews_count": 294,
    "thumbnail": "https://lh5.googleusercontent.com/p/AF1QipPuF46-IgiH7rKrjdNrO-x5hm8K4DwuDkafqKLK",
    "latitude": 10.5406063,
    "longitude": -83.5035373,
    "type": "Restaurant"
  },
  {
    "name": "Rapi2 Restaurante",
    "address_1": "Ciclo Chacon",
    "address_2": "100 metros sur del",
    "website": "rapi2-restaurante.negocio.site",
    "rating": 4.6,
    "reviews_count": 105,
    "thumbnail": "https://lh5.googleusercontent.com/p/AF1QipM5SWDr6ah60FY_3kxlCVqUUcL50SqdKvgmsWcJ",
    "latitude": 10.2747686,
    "longitude": -83.7838094,
    "type": "Restaurant"
  },
  {
    "name": "Soda Las Ricas Comidas",
    "address_1": "de la Bomba UNO 75 metros Sur",
    "address_2": "Limón, Pococí",
    "website": "",
    "rating": 4.5,
    "reviews_count": 54,
    "thumbnail": "https://lh5.googleusercontent.com/p/AF1QipOnLjbpBqcQpdra1tHm3ScITyCZp7XhuMvEmpag",
    "latitude": 10.3970702,
    "longitude": -83.8303714,
    "type": "Restaurant"
  },
  {
    "name": "Restaurante la Rumba",
    "address_1": "De la Expo Pococi, 1.5 kilometros norte y 500 metros oeste, sobe",
    "address_2": "C. Lilliam",
    "website": "facebook.com",
    "rating": 5,
    "reviews_count": 2,
    "thumbnail": "https://lh5.googleusercontent.com/p/AF1QipP1G8v1jl1msyXxN3MZ_ggAthX4z0PwWKgzm6lw",
    "latitude": 10.2369057,
    "longitude": -83.784094,
    "type": "Restaurant"
  },
  {
    "name": "Restaurante Komalotico",
    "address_1": "652X+WG7",
    "address_2": "Limón Province, Guapiles",
    "website": "",
    "rating": 4.2,
    "reviews_count": 104,
    "thumbnail": "https://lh5.googleusercontent.com/p/AF1QipNr2LajQdFHw4FjmlO3nR6yZow698sfD1Zr3tF9",
    "latitude": 10.2022911,
    "longitude": -83.8012047,
    "type": "Restaurant"
  },
  {
    "name": "El Bule",
    "address_1": "809, Limón La Colonia",
    "address_2": "Pococí",
    "website": "",
    "rating": 4.5,
    "reviews_count": 106,
    "thumbnail": "https://lh5.googleusercontent.com/p/AF1QipOVBg3ExbmXCGE0H2VRMH7noN3_rFp5lxGcgcVt",
    "latitude": 10.2468724,
    "longitude": -83.7950413,
    "type": "Restaurant"
  },
  {
    "name": "Granja y Restaurante El Corinto",
    "address_1": "La unión Limón Guápiles",
    "address_2": 70201,
    "website": "",
    "rating": 4.4,
    "reviews_count": 251,
    "thumbnail": "https://lh5.googleusercontent.com/p/AF1QipPQLLC-FH_ag-7TvVUQK-pIEYvnJrE1PXejjnjd",
    "latitude": 10.2154622,
    "longitude": -83.8755212,
    "type": "Restaurant"
  },
  {
    "name": "Restaurante Rancho El Rinconcito",
    "address_1": "6452+P2H",
    "address_2": "Limón, Guápiles",
    "website": "",
    "rating": 4.4,
    "reviews_count": 44,
    "thumbnail": "https://lh5.googleusercontent.com/p/AF1QipOMnM-fqPPqjvY8ChVdTxIMTWAT0k34CBseNxnt",
    "latitude": 10.2093241,
    "longitude": -83.8998843,
    "type": "Restaurant"
  },
  {
    "name": "La chinita",
    "address_1": "9796+X86",
    "address_2": "Limón, Pococí",
    "website": "",
    "rating": "",
    "reviews_count": "",
    "thumbnail": "",
    "latitude": 10.3699038,
    "longitude": -83.7392329,
    "type": "Hamburger restaurant"
  },
  {
    "name": "Burger King Pococí",
    "address_1": 32,
    "address_2": "Limón Province, Guapiles",
    "website": "",
    "rating": 4.2,
    "reviews_count": 32,
    "thumbnail": "https://lh5.googleusercontent.com/p/AF1QipN9tCbJW7Im30pjWHQsdDL6zPKlgLTneUVDBStH",
    "latitude": 10.2027689,
    "longitude": -83.7893182,
    "type": "Hamburger restaurant"
  },
  {
    "name": "Tilapias Melmar",
    "address_1": "En los Ángeles de Cariari Del cruze de Sura 2.5k al norte y 400 mts oeste Limón Pococí",
    "address_2": 70205,
    "website": "tilapias-melmar.negocio.site",
    "rating": 5,
    "reviews_count": 4,
    "thumbnail": "https://lh5.googleusercontent.com/p/AF1QipMefPoe1zGZZU6WgdgMP204S1H_LkbNQhbbMWdM",
    "latitude": 10.4191119,
    "longitude": -83.7252116,
    "type": "Restaurant"
  },
  {
    "name": "Mr Pig",
    "address_1": "97HG+RQ9",
    "address_2": "Limón, Pococí",
    "website": "",
    "rating": 4.6,
    "reviews_count": 59,
    "thumbnail": "https://lh5.googleusercontent.com/p/AF1QipMUKEb2yHS8P5GZ2ZWQL9LK8TIHXX7nMYbi6nF_",
    "latitude": 10.3795293,
    "longitude": -83.7230213,
    "type": "Restaurant"
  },
  {
    "name": "Restaurante Casa Manigua Costa Rica",
    "address_1": "Kms. noreste de Rainforest Destino, al lado derecho",
    "address_2": "Ctra. Braulio Carrillo 3",
    "website": "restaurantecasamaniguacr.com",
    "rating": 4.5,
    "reviews_count": 62,
    "thumbnail": "https://lh5.googleusercontent.com/p/AF1QipNNWCvzlVVWM4UJ77T8KZTBqsgG7KjO_EbH39rO",
    "latitude": 10.1973549,
    "longitude": -83.9010689,
    "type": "Restaurant"
  },
  {
    "name": "Soda el Bambú",
    "address_1": "HFJF+4WV",
    "address_2": "Limón, Pococí",
    "website": "",
    "rating": 4.5,
    "reviews_count": 15,
    "thumbnail": "https://lh5.googleusercontent.com/p/AF1QipNBAHXT5dblMX5NOPlarvpNPld2G3A-GjOH5L9c",
    "latitude": 10.5803624,
    "longitude": -83.5251988,
    "type": "Restaurant"
  },
  {
    "name": "Rancho La Ponderosa",
    "address_1": "97PM+Q6W",
    "address_2": "cinco, C. Campo Tres",
    "website": "",
    "rating": 3.8,
    "reviews_count": 5,
    "thumbnail": "",
    "latitude": 10.3869836,
    "longitude": -83.7169254,
    "type": "Restaurant"
  },
  {
    "name": "Restaurante La Bodega",
    "address_1": "56X9+X5",
    "address_2": "Limón Province, Guapiles",
    "website": "",
    "rating": 4.4,
    "reviews_count": 27,
    "thumbnail": "https://lh5.googleusercontent.com/p/AF1QipP65yqvzEgFUESuuvDMmcfoiCFATSa3dHIuDoiV",
    "latitude": 10.1999638,
    "longitude": -83.7820799,
    "type": "Family restaurant"
  },
  {
    "name": "El Fogón de Lola",
    "address_1": "Guápiles, 75 metros sur de la entrada a Sarapiquí",
    "address_2": "José María Castro",
    "website": "mymenuqr.com",
    "rating": 4.5,
    "reviews_count": 3685,
    "thumbnail": "https://lh5.googleusercontent.com/p/AF1QipM6hLOmb8M9jwzQUdrHRS_kMBE2HilCFQzaUhM2",
    "latitude": 10.2109089,
    "longitude": -83.8988433,
    "type": "Family restaurant"
  },
  {
    "name": "DONDE CACHE",
    "address_1": "De la Fuerza Pública 150 oeste, 350 norte",
    "address_2": "Limón, Guápiles",
    "website": "",
    "rating": 5,
    "reviews_count": 17,
    "thumbnail": "https://lh5.googleusercontent.com/p/AF1QipMQduKtzKG_vE_XqiEE4EiYUNHqUEVOYUGYqcqs",
    "latitude": 10.2214162,
    "longitude": -83.7911563,
    "type": "Restaurant"
  },
  {
    "name": "Tilapera palma",
    "address_1": "Limón, Pococí",
    "address_2": "Costa Rica",
    "website": "",
    "rating": 4.3,
    "reviews_count": 15,
    "thumbnail": "https://lh5.googleusercontent.com/p/AF1QipMPKY8rZbSDBiB1tWkThS5u6MLC4WZDSRzOQ_5F",
    "latitude": 10.3837705,
    "longitude": -83.7615442,
    "type": "Family restaurant"
  },
  {
    "name": "Pepiyos",
    "address_1": "6675+FJF",
    "address_2": "Blvr. de Guápiles",
    "website": "",
    "rating": "",
    "reviews_count": "",
    "thumbnail": "",
    "latitude": 10.2136787,
    "longitude": -83.7909599,
    "type": "Restaurant"
  },
  {
    "name": "Restaurante Antojito5",
    "address_1": "9758+524",
    "address_2": "Limón, Roxana",
    "website": "",
    "rating": 4.3,
    "reviews_count": 91,
    "thumbnail": "https://lh5.googleusercontent.com/p/AF1QipPRO398A-mc_B1rf0ETJnrdjyZ5ddHtLJsqkIAt",
    "latitude": 10.3578766,
    "longitude": -83.7349134,
    "type": "Restaurant"
  },
  {
    "name": "El Patio",
    "address_1": "GFRW+JJV",
    "address_2": "Limón Province, Pococí",
    "website": "",
    "rating": 4.6,
    "reviews_count": 361,
    "thumbnail": "https://lh5.googleusercontent.com/p/AF1QipMABgfZDCDKGJazLs5VXEidz3PtcMnz9ANOec5F",
    "latitude": 10.5416231,
    "longitude": -83.5034674,
    "type": "Restaurant"
  },
  {
    "name": "La casa del sabor",
    "address_1": "C6W8+MGH",
    "address_2": "Limón, Pococí",
    "website": "",
    "rating": "",
    "reviews_count": "",
    "thumbnail": "",
    "latitude": 10.4466974,
    "longitude": -83.7836403,
    "type": "Fast food restaurant"
  },
  {
    "name": "Restaurante Sun Ken",
    "address_1": "6688+4FP",
    "address_2": "Barrio Belén, Limón Province, Guapiles",
    "website": "",
    "rating": 4.4,
    "reviews_count": 223,
    "thumbnail": "https://lh5.googleusercontent.com/p/AF1QipOEDRnh8AKlQxxc7zeU1g9cbYoTn1w4fpFoimnN",
    "latitude": 10.2153366,
    "longitude": -83.7837973,
    "type": "Asian restaurant"
  },
  {
    "name": "Soda el Punto Criollo",
    "address_1": "87J2+X7R",
    "address_2": "Astua y Pirie, Limón, Pococí",
    "website": "",
    "rating": 5,
    "reviews_count": 1,
    "thumbnail": "https://lh5.googleusercontent.com/p/AF1QipNtQYvJFBliEE0O6wwy91p4EgNztR8M-a5494ml",
    "latitude": 10.3324933,
    "longitude": -83.7493523,
    "type": "Restaurant"
  },
  {
    "name": "Almosa",
    "address_1": "50 mts al oeste de pollos Kliver",
    "address_2": "Costa Rica",
    "website": "es-la.facebook.com",
    "rating": 4.3,
    "reviews_count": 208,
    "thumbnail": "https://lh5.googleusercontent.com/p/AF1QipO9ar1JCnA5f5cnmoDUkkh6ikg8ZU-RUX60K1ct",
    "latitude": 10.2136701,
    "longitude": -83.7910975,
    "type": "Restaurant"
  },
  {
    "name": "Retaurante Baula de Costa Rica",
    "address_1": "Cariari de Pococí Contiguo a Terminal de Buses Guapileños Ruta Parque Nacional Tortugero Limon Cariari",
    "address_2": 70205,
    "website": "",
    "rating": 5,
    "reviews_count": 1,
    "thumbnail": "https://lh5.googleusercontent.com/p/AF1QipP738uAd_jkTXXjziJcAvZOCq1NYLh8Eqji9yVW",
    "latitude": 10.488088,
    "longitude": -83.6135572,
    "type": "Restaurant"
  },
  {
    "name": "Soda Lupe",
    "address_1": "Cariari Limon Tortuguero",
    "address_2": 70205,
    "website": "soda-lupe.negocio.site",
    "rating": 4.3,
    "reviews_count": 49,
    "thumbnail": "https://lh5.googleusercontent.com/p/AF1QipPydA-Nb95ChwpF1AQHTC2l3ltMMKFoJz1R1V0A",
    "latitude": 10.4657853,
    "longitude": -83.6555358,
    "type": "Restaurant"
  },
  {
    "name": "Restaurante Sabores del Trópico",
    "address_1": "75 metros oeste del cuerpo de bomberos Limón Guápiles",
    "address_2": 70201,
    "website": "negocio.site",
    "rating": 4.7,
    "reviews_count": 277,
    "thumbnail": "https://lh5.googleusercontent.com/p/AF1QipMMPX1oGptza_ZtHgy6U7OQpMroHrZFvbRfUk0y",
    "latitude": 10.2154007,
    "longitude": -83.7904617,
    "type": "Restaurant"
  },
  {
    "name": "Rio Danta Restaurant",
    "address_1": "654C+F4M",
    "address_2": "C. Danta",
    "website": "",
    "rating": 4.1,
    "reviews_count": 142,
    "thumbnail": "https://lh5.googleusercontent.com/p/AF1QipPlA5rJ9VCU_GTYNbrfB8hobdOInfDPf2858loi",
    "latitude": 10.206201,
    "longitude": -83.8297103,
    "type": "Restaurant"
  },
  {
    "name": "Toli's Caldosas",
    "address_1": "148, Limón Limón",
    "address_2": "Pococí",
    "website": "",
    "rating": 4.5,
    "reviews_count": 6,
    "thumbnail": "https://lh5.googleusercontent.com/p/AF1QipMZASJtY8GZadMjP_i8CxTFszBzyf-FRrN_xACP",
    "latitude": 10.3873323,
    "longitude": -83.7180763,
    "type": "Seafood restaurant"
  },
  {
    "name": "Cafeteria Mar y Ross",
    "address_1": "9767+2PW",
    "address_2": "Limón Province, Roxana",
    "website": "",
    "rating": 4.4,
    "reviews_count": 35,
    "thumbnail": "https://lh5.googleusercontent.com/p/AF1QipOpYaASMDPfn-ymm0lmUAzUbLFZToIp8DVQLnkd",
    "latitude": 10.3601128,
    "longitude": -83.7356822,
    "type": "Restaurant"
  },
  {
    "name": "Cubillo's Pizza",
    "address_1": "Unnamed Road, Limón Limón",
    "address_2": "Pococí",
    "website": "cubillos-pizza.negocio.site",
    "rating": 5,
    "reviews_count": 1,
    "thumbnail": "https://lh5.googleusercontent.com/p/AF1QipOLP7vbu-tPkWydNEFhaAyNdnzYtKv0HgdEYaqw",
    "latitude": 10.4308902,
    "longitude": -83.7822802,
    "type": "Pizza restaurant"
  },
  {
    "name": "Restaurante Onde Timbu",
    "address_1": "45CP+HPF",
    "address_2": "Limón, Guápiles",
    "website": "m.facebook.com",
    "rating": 4.7,
    "reviews_count": 254,
    "thumbnail": "https://lh5.googleusercontent.com/p/AF1QipNE_wUXmghK2scnBLkj4PKKPGjTupt8EHW-l8PC",
    "latitude": 10.1214288,
    "longitude": -83.8132184,
    "type": "Restaurant"
  },
  {
    "name": "Ñomi's",
    "address_1": "247, Limón",
    "address_2": "Pococí",
    "website": "facebook.com",
    "rating": 5,
    "reviews_count": 2,
    "thumbnail": "https://lh5.googleusercontent.com/p/AF1QipMFoIl2YYJlOy9LjOVPBCSxymZISwf0MWV7QUqH",
    "latitude": 10.3581658,
    "longitude": -83.7378113,
    "type": "Restaurant"
  },
  {
    "name": "Pizzeria Amadamia",
    "address_1": "9768+7J5",
    "address_2": "Limón, Pococí",
    "website": "facebook.com",
    "rating": 4.7,
    "reviews_count": 17,
    "thumbnail": "",
    "latitude": 10.3606398,
    "longitude": -83.73339,
    "type": "Restaurant"
  },
  {
    "name": "Tortilleria Tipica y Mas",
    "address_1": "200 metros oeste del cruce de",
    "address_2": "Limón, Pococí",
    "website": "facebook.com",
    "rating": 4.1,
    "reviews_count": 8,
    "thumbnail": "https://lh5.googleusercontent.com/p/AF1QipMk0FxZRehHLBN7HmkisDEqyoSaqJche8h8Rls3",
    "latitude": 10.210584,
    "longitude": -83.899273,
    "type": "Restaurant"
  },
  {
    "name": "La Bocana CR",
    "address_1": "100 metros Norte de Mayca",
    "address_2": "Limón, Guápiles",
    "website": "",
    "rating": 4.5,
    "reviews_count": 4,
    "thumbnail": "https://lh5.googleusercontent.com/p/AF1QipNeuH0cpVFMOFcvObTEG3cRpZ1bzGgesljcsGzK",
    "latitude": 10.214611,
    "longitude": -83.7929982,
    "type": "Restaurant"
  },
  {
    "name": "Rancho Típico La Rivera Del Toro",
    "address_1": "556V+V67",
    "address_2": "Limón, Guápiles",
    "website": "facebook.com",
    "rating": 4.5,
    "reviews_count": 77,
    "thumbnail": "https://lh5.googleusercontent.com/p/AF1QipNLHHpQmlJIIWhXScH8ii1EnuZK1pnJBC9--9wy",
    "latitude": 10.1621684,
    "longitude": -83.8069381,
    "type": "Restaurant"
  },
  {
    "name": "El Yugo de Mi Tata",
    "address_1": "635X+HX7",
    "address_2": "Ruta Nacional Primaria 32",
    "website": "",
    "rating": 4.3,
    "reviews_count": 5673,
    "thumbnail": "https://lh5.googleusercontent.com/p/AF1QipNKSFPTiMi59R9OkTQbWgFUaMHIkVivOgzCwmu9",
    "latitude": 10.2089153,
    "longitude": -83.9000666,
    "type": "Restaurant"
  },
  {
    "name": "Restaurante El Unico",
    "address_1": "Calle 5 Limón",
    "address_2": "Limón Province, Guapiles",
    "website": "negocio.site",
    "rating": 4.2,
    "reviews_count": 357,
    "thumbnail": "https://lh5.googleusercontent.com/p/AF1QipOrNnsax4Steo29RqkfiHXXc1BMxxpjYGBB7x3J",
    "latitude": 10.2131042,
    "longitude": -83.7870864,
    "type": "Asian restaurant"
  },
  {
    "name": "Restaurante Baula de Costa Rica",
    "address_1": "Limón, Pococí",
    "address_2": "Costa Rica",
    "website": "",
    "rating": 4,
    "reviews_count": 3,
    "thumbnail": "https://lh5.googleusercontent.com/p/AF1QipOfwBaxz4qIqfeCqE6Vv3QQb66nNsHCDSW2on_w",
    "latitude": 10.3571473,
    "longitude": -83.7355478,
    "type": "Restaurant"
  },
  {
    "name": "Taquería El Bajillo",
    "address_1": 809,
    "address_2": "Limón Province, Guapiles",
    "website": "negocio.site",
    "rating": 4.6,
    "reviews_count": 10,
    "thumbnail": "https://lh5.googleusercontent.com/p/AF1QipPMyryZh8ECGEiFgZr0rOmcerblru0XU6pbBU46",
    "latitude": 10.2567103,
    "longitude": -83.7951328,
    "type": "American restaurant"
  },
  {
    "name": "Chimichanga's Guapiles",
    "address_1": "25 Este de Correos de Costa Rica Sucursal Guapiles, Edificio 003d1979003d",
    "address_2": "Limón, Guápiles",
    "website": "",
    "rating": 4.6,
    "reviews_count": 136,
    "thumbnail": "https://lh5.googleusercontent.com/p/AF1QipOMHd3GmLin77LUk-Gw1sU0HlkzDJWdQUc1NjAW",
    "latitude": 10.2149259,
    "longitude": -83.7906371,
    "type": "Mexican restaurant"
  },
  {
    "name": "La Trocha",
    "address_1": "6623+VMG",
    "address_2": "C. La Trocha",
    "website": "",
    "rating": 4.2,
    "reviews_count": 508,
    "thumbnail": "https://lh5.googleusercontent.com/p/AF1QipPDIcDkqeKqNiPgGznKSHzOFybhIQzpXQ1lxGc-",
    "latitude": 10.2021872,
    "longitude": -83.7957941,
    "type": "Restaurant"
  },
  {
    "name": "Soda Emanuel",
    "address_1": 247,
    "address_2": "Limón, Pococí",
    "website": "",
    "rating": 4.2,
    "reviews_count": 15,
    "thumbnail": "https://lh5.googleusercontent.com/p/AF1QipPXhbtxuQk6fahtzQBGxm22BQGqvJjpl5cmayBP",
    "latitude": 10.3643404,
    "longitude": -83.7328541,
    "type": "Restaurant"
  },
  {
    "name": "Bar 0026 Restaurante Marisquería Acuario",
    "address_1": "Limón, Pococí",
    "address_2": "Costa Rica",
    "website": "facebook.com",
    "rating": 3.8,
    "reviews_count": 4,
    "thumbnail": "https://lh5.googleusercontent.com/p/AF1QipMSeF5YmPRQMzd3cubpZhjnFTMFu1H7kcULxXbg",
    "latitude": 10.3578528,
    "longitude": -83.7349255,
    "type": "Restaurant"
  },
  {
    "name": "Eli's Restaurante",
    "address_1": "C. 12A",
    "address_2": "Barrio Los Ángeles, Limón, Guápiles",
    "website": "facebook.com",
    "rating": 4.6,
    "reviews_count": 34,
    "thumbnail": "https://lh5.googleusercontent.com/p/AF1QipMZ_32S5JGjNDFSrM2y5DJJFG-0db8V-QKT_UKl",
    "latitude": 10.2061317,
    "longitude": -83.7967322,
    "type": "Restaurant"
  },
  {
    "name": "Bar restaurante Los Vecinos",
    "address_1": "50704 Limón",
    "address_2": "San Francisco de Tortuguero",
    "website": "",
    "rating": 5,
    "reviews_count": 2,
    "thumbnail": "https://lh5.googleusercontent.com/p/AF1QipO07jLvYitjXniftHaLzMikwLUYbcp2yrobgoga",
    "latitude": 10.5786088,
    "longitude": -83.5249918,
    "type": "Bar 0026 grill"
  },
  {
    "name": "Pizza Hut Pococí",
    "address_1": "6636+49F",
    "address_2": "Limón Province, Guapiles",
    "website": "pizzahutcr.com",
    "rating": 4.1,
    "reviews_count": 491,
    "thumbnail": "https://lh5.googleusercontent.com/p/AF1QipMo2WLjiFH_kIUUxpSx6W528vDKrfxtEtmWxIcr",
    "latitude": 10.2028148,
    "longitude": -83.7890822,
    "type": "Pizza restaurant"
  },
  {
    "name": "Rio Corinto",
    "address_1": "6467+PXF, Contiguo al Rio Corinto",
    "address_2": "Limón, Guápiles",
    "website": "",
    "rating": 4.2,
    "reviews_count": 487,
    "thumbnail": "https://lh5.googleusercontent.com/p/AF1QipPD7K7zogziUB-6KBf_D5CwUeva5QPl44-1pd6u",
    "latitude": 10.2118082,
    "longitude": -83.8850831,
    "type": "Restaurant"
  },
  {
    "name": "Soda La Culebra",
    "address_1": "GFRW+7GX",
    "address_2": "Costado sur del Embarcadero El AlmendroTortuguero,",
    "website": "",
    "rating": 4.2,
    "reviews_count": 41,
    "thumbnail": "https://lh5.googleusercontent.com/p/AF1QipOdjAEWe-ulYQEN1RJb_MJGpRsowDShpUNQ_JwZ",
    "latitude": 10.5407251,
    "longitude": -83.5036341,
    "type": "Restaurant"
  },
  {
    "name": "Restaurante Rancho Cocodrilo",
    "address_1": "Astua Pirie, de la escuela 1 kilómetro al este Limón",
    "address_2": "Costa Rica",
    "website": "",
    "rating": 4.5,
    "reviews_count": 62,
    "thumbnail": "https://lh5.googleusercontent.com/p/AF1QipPOcRfvzCOv9PW3S6kiFDvinU7NlAMqmM2jTugY",
    "latitude": 10.3261951,
    "longitude": -83.7344983,
    "type": "Family restaurant"
  },
  {
    "name": "Cevichera y Marisquería Chiri",
    "address_1": "GFRW+5H8",
    "address_2": "Limón, Pococí",
    "website": "",
    "rating": 3.3,
    "reviews_count": 24,
    "thumbnail": "https://lh5.googleusercontent.com/p/AF1QipMWhRqykzed6HU3u3j_LveOTRDkKbNHYOZptTJu",
    "latitude": 10.540412,
    "longitude": -83.5035379,
    "type": "Restaurant"
  },
  {
    "name": "Xxx",
    "address_1": "Limón, Pococí",
    "address_2": "Costa Rica",
    "website": "",
    "rating": 5,
    "reviews_count": 3,
    "thumbnail": "https://lh5.googleusercontent.com/p/AF1QipOdQRv_tLrhqbkzfNdq2qfnE8IMbc11fLhbu7Mv",
    "latitude": 10.3768169,
    "longitude": -83.7494019,
    "type": "Restaurant"
  },
  {
    "name": "Sabores Miriel",
    "address_1": 506,
    "address_2": "San Francisco de Tortuguero, Limón",
    "website": "sanfranciscotortuguero.com",
    "rating": 5,
    "reviews_count": 29,
    "thumbnail": "https://lh5.googleusercontent.com/p/AF1QipMYsclj1CHhxEFa1AsMk3rh9IxT8EYn61LD_fme",
    "latitude": 10.5791287,
    "longitude": -83.5240111,
    "type": "Restaurant"
  },
  {
    "name": "Restaurante Parrillada Argentina El CHÉ",
    "address_1": "53QQ+78J",
    "address_2": "Limón, Guápiles",
    "website": "",
    "rating": 5,
    "reviews_count": 1,
    "thumbnail": "",
    "latitude": 10.1882233,
    "longitude": -83.9117473,
    "type": "Brunch restaurant"
  },
  {
    "name": "Restaurante El Rubio",
    "address_1": "Del Registro civil 50 al sur y 200 al este",
    "address_2": "Limón, Guápiles",
    "website": "",
    "rating": 4.2,
    "reviews_count": 394,
    "thumbnail": "https://lh5.googleusercontent.com/p/AF1QipMe1LVdfDhIjrQQS81QkNaJ16G67HvkA9uS-6Yk",
    "latitude": 10.2051551,
    "longitude": -83.7862007,
    "type": "Restaurant"
  },
  {
    "name": "Restaurante Marisquería la Trocha",
    "address_1": "50 METROS OESTE DE LA NISSAN",
    "address_2": "Limón, Guápiles",
    "website": "",
    "rating": "",
    "reviews_count": "",
    "thumbnail": "https://lh5.googleusercontent.com/p/AF1QipNV2vZJMd9ePPt4u0kQ6S7B7PaAju5IUxT8gWGS",
    "latitude": 10.2136788,
    "longitude": -83.7890894,
    "type": "Seafood restaurant"
  },
  {
    "name": "Oven Pizza",
    "address_1": "125mts este del Conservatorio San Agustín",
    "address_2": "Limón Province, Guapiles",
    "website": "ovenpizza.negocio.site",
    "rating": 4.7,
    "reviews_count": 57,
    "thumbnail": "https://lh5.googleusercontent.com/p/AF1QipMHGhhZF4dbqxO-xpSosQEoSFancvYFFVOQT4iy",
    "latitude": 10.2166859,
    "longitude": -83.7938133,
    "type": "Restaurant"
  },
  {
    "name": "Restaurante Mi Niño 2",
    "address_1": "Limón, Roxana",
    "address_2": "Costa Rica",
    "website": "",
    "rating": 3.5,
    "reviews_count": 86,
    "thumbnail": "https://lh5.googleusercontent.com/p/AF1QipPiwjnjrOlG77A4EB64bMfoIj2jITsUh_m355Ba",
    "latitude": 10.5396377,
    "longitude": -83.5037689,
    "type": "Restaurant"
  },
  {
    "name": "Soda El Rio",
    "address_1": "767F+PC7",
    "address_2": "Limón, Roxana",
    "website": "",
    "rating": 4.5,
    "reviews_count": 58,
    "thumbnail": "https://lh5.googleusercontent.com/p/AF1QipM6MEpQTkh2mJt8whvm33yx1m6U-1fKp7avtpxd",
    "latitude": 10.264293,
    "longitude": -83.7764396,
    "type": "Restaurant"
  },
  {
    "name": "La Taberna",
    "address_1": "GFQW+RC9",
    "address_2": "Limón Province, Roxana",
    "website": "",
    "rating": 3.8,
    "reviews_count": 119,
    "thumbnail": "https://lh5.googleusercontent.com/p/AF1QipMX_L1tOwgiPRFahz9QDxEGAB4YtQvAtNmxrTVc",
    "latitude": 10.5395385,
    "longitude": -83.503899,
    "type": "Bar 0026 grill"
  },
  {
    "name": "Crispy Pollo",
    "address_1": "Cariari, Pococí, Limón, Frente al mejor precio Limón Cariari",
    "address_2": 70205,
    "website": "",
    "rating": 4,
    "reviews_count": 1,
    "thumbnail": "https://lh5.googleusercontent.com/p/AF1QipNozzLbE0-qg_05DFde9XclxwUPExtJN8LAnFFI",
    "latitude": 10.3630344,
    "longitude": -83.7335995,
    "type": "Chicken restaurant"
  },
  {
    "name": "Saturday food",
    "address_1": "C2",
    "address_2": "Limón, Guápiles",
    "website": "",
    "rating": 5,
    "reviews_count": 2,
    "thumbnail": "https://lh5.googleusercontent.com/p/AF1QipNkxAWSl300tNtVPMAsBez1uEzRCFE3BNUq8-Sv",
    "latitude": 10.213669,
    "longitude": -83.7910948,
    "type": "Restaurant"
  },
  {
    "name": "Centro Social Los Balcones",
    "address_1": "Route 247 Las Palmitas Limon CR 70205",
    "address_2": "Costa Rica",
    "website": "facebook.com",
    "rating": 4.7,
    "reviews_count": 3,
    "thumbnail": "https://lh5.googleusercontent.com/p/AF1QipN2SI5OdQjgXT8zVS0Mz1FXvP2lgp0dM2oHL8wX",
    "latitude": 10.4452335,
    "longitude": -83.7093968,
    "type": "Bar 0026 grill"
  },
  {
    "name": "Burgers",
    "address_1": "C. 5",
    "address_2": "Limón Province, Guapiles",
    "website": "facebook.com",
    "rating": 4.2,
    "reviews_count": 210,
    "thumbnail": "https://lh5.googleusercontent.com/p/AF1QipPLeR-MtUvdij-pqsMVgGiIj7OQgwjSmqUhR5nz",
    "latitude": 10.2124482,
    "longitude": -83.7871995,
    "type": "Hamburger restaurant"
  },
  {
    "name": "FamiDelicias Big",
    "address_1": "95V8+G6H",
    "address_2": "Ticabán, Limón, Pococí",
    "website": "facebook.com",
    "rating": 5,
    "reviews_count": 1,
    "thumbnail": "https://lh5.googleusercontent.com/p/AF1QipM3YfgaAjnsExtDfSDU6T4fAtKZwYIfwlaQQ0zQ",
    "latitude": 10.393821,
    "longitude": -83.8343988,
    "type": "Restaurant"
  },
  {
    "name": "BAR LA Chichera DE VINDAS",
    "address_1": "506 87136480",
    "address_2": "Limón, Guápiles",
    "website": "bar-la-chichera.negocio.site",
    "rating": 4.1,
    "reviews_count": 31,
    "thumbnail": "https://lh5.googleusercontent.com/p/AF1QipNVDma2Scf_RwfP8s-uPDolrcT3KcBQzjZPZOM4",
    "latitude": 10.2122247,
    "longitude": -83.7873327,
    "type": "Bar 0026 grill"
  },
  {
    "name": "Restaurante Furugui",
    "address_1": "6677+86Q",
    "address_2": "Quebrada Numancia",
    "website": "",
    "rating": 4.4,
    "reviews_count": 15,
    "thumbnail": "https://lh5.googleusercontent.com/p/AF1QipOXce8gAua348aBPEbw304lQ4iIb0dqEqQlrk7N",
    "latitude": 10.2133499,
    "longitude": -83.7868871,
    "type": "Restaurant"
  },
  {
    "name": "Nanos",
    "address_1": "97C5+2C4",
    "address_2": "Limón, Pococí",
    "website": "",
    "rating": 3.8,
    "reviews_count": 12,
    "thumbnail": "https://lh5.googleusercontent.com/p/AF1QipOabF17QlkFEoyuTRNPtVhvElCIuSbFWuVSwV0i",
    "latitude": 10.3700011,
    "longitude": -83.7414227,
    "type": "Restaurant"
  },
  {
    "name": "Taqueria Taco Pan Las Torres",
    "address_1": "6695+3P7",
    "address_2": "Barrio Coopevigua Uno, Limón Province, Guapiles",
    "website": "",
    "rating": 4.6,
    "reviews_count": 195,
    "thumbnail": "https://lh5.googleusercontent.com/p/AF1QipN5V9cxM7ClVubp9Ni-luV588AI6l90h-vRd1mi",
    "latitude": 10.2176531,
    "longitude": -83.7907073,
    "type": "Fast food restaurant"
  },
  {
    "name": "El Centro Del Sabor",
    "address_1": "Limón Province, Roxana",
    "address_2": "Costa Rica",
    "website": "",
    "rating": 4.6,
    "reviews_count": 57,
    "thumbnail": "https://lh5.googleusercontent.com/p/AF1QipO5o_1QFEPylSaAPDkC2-LdGR2Pp9UPvYUibDFR",
    "latitude": 10.2825565,
    "longitude": -83.7241744,
    "type": "Restaurant"
  },
  {
    "name": "Sabores Criollos",
    "address_1": "6673+6C3",
    "address_2": "Barrio Los Ángeles, Limón, Guápiles",
    "website": "",
    "rating": 4.7,
    "reviews_count": 89,
    "thumbnail": "https://lh5.googleusercontent.com/p/AF1QipORS5kvxcU6pSpS1cKQYzx43EjTNNVuCyl36-jV",
    "latitude": 10.2130042,
    "longitude": -83.7964388,
    "type": "Restaurant"
  },
  {
    "name": "Lao's Place",
    "address_1": "San Francisco de Tortuguero, Limón, Pococí",
    "address_2": 70206,
    "website": "",
    "rating": 5,
    "reviews_count": 3,
    "thumbnail": "https://lh5.googleusercontent.com/p/AF1QipM1kj2WCVRwaGWw8clb66MByHDhvd8qIcUTj8XD",
    "latitude": 10.5807029,
    "longitude": -83.5236785,
    "type": "Restaurant"
  },
  {
    "name": "CEN CINAI Ticabán",
    "address_1": "Ticabán, Limón, Pococí",
    "address_2": "Costa Rica",
    "website": "",
    "rating": 3,
    "reviews_count": 1,
    "thumbnail": "",
    "latitude": 10.4044237,
    "longitude": -83.8313821,
    "type": "Restaurant"
  },
  {
    "name": "La Yunta Cariari",
    "address_1": "9757+W65",
    "address_2": "Limón, Pococí",
    "website": "",
    "rating": 5,
    "reviews_count": 1,
    "thumbnail": "https://lh5.googleusercontent.com/p/AF1QipO2lAfuStgw810O1mY0gvSD84DTjKmBxCkuCwVz",
    "latitude": 10.3598403,
    "longitude": -83.7372072,
    "type": "Restaurant"
  },
  {
    "name": "La ventanita del sabor #2",
    "address_1": "Av. 21",
    "address_2": "Limón, Guápiles",
    "website": "",
    "rating": 5,
    "reviews_count": 2,
    "thumbnail": "https://lh5.googleusercontent.com/p/AF1QipOVKlAGF73P7uzausRylFxGUBHnnnDIpieXk-PU",
    "latitude": 10.2234527,
    "longitude": -83.7844237,
    "type": "Buffet restaurant"
  },
  {
    "name": "Soda Alex",
    "address_1": "6652+HMP",
    "address_2": "C. 16",
    "website": "",
    "rating": 4.3,
    "reviews_count": 407,
    "thumbnail": "https://lh5.googleusercontent.com/p/AF1QipPvmnQYscBvyra26cRMWuusl7JCBwaTsl7w_VKI",
    "latitude": 10.2089577,
    "longitude": -83.7982916,
    "type": "Restaurant"
  },
  {
    "name": "Restaurante Vega #1",
    "address_1": "247 Limón",
    "address_2": "Pococí",
    "website": "",
    "rating": 4,
    "reviews_count": 4,
    "thumbnail": "https://lh5.googleusercontent.com/p/AF1QipMaVKCSg2Y-hsPLARMcv1RUJRktcsfcxYjlF6Xa",
    "latitude": 10.3569971,
    "longitude": -83.7355647,
    "type": "Restaurant"
  },
  {
    "name": "Restaurante El Bambú",
    "address_1": "La Colonia San Rafael. De la iglesia católica 600 oeste y 185 sur",
    "address_2": "Limón, Pococí",
    "website": "",
    "rating": 4.4,
    "reviews_count": 73,
    "thumbnail": "https://lh5.googleusercontent.com/p/AF1QipMfhu528zDs1yeYfSzPzbEBdFBWmKti_EFkquyp",
    "latitude": 10.2425295,
    "longitude": -83.8105547,
    "type": "Restaurant"
  },
  {
    "name": "El Cocal",
    "address_1": "98PV+Q95",
    "address_2": "Llano Bonito, Limón Province, Roxana",
    "website": "",
    "rating": 3.7,
    "reviews_count": 7,
    "thumbnail": "",
    "latitude": 10.38688,
    "longitude": -83.6565312,
    "type": "Restaurant"
  },
  {
    "name": "Ceviche Del Caribe",
    "address_1": "809, Limón",
    "address_2": "Limón, Roxana",
    "website": "",
    "rating": 4.4,
    "reviews_count": 67,
    "thumbnail": "https://lh5.googleusercontent.com/p/AF1QipOSmjddqanBRtM1zTM3Spw58b1wGHjPyvvUmmce",
    "latitude": 10.2716674,
    "longitude": -83.7742454,
    "type": "Restaurant"
  },
  {
    "name": "Marisquería Mar Azul",
    "address_1": "Frente al Cementerio Limón Guápiles",
    "address_2": 70201,
    "website": "",
    "rating": 4.4,
    "reviews_count": 517,
    "thumbnail": "https://lh5.googleusercontent.com/p/AF1QipPSYw9igPtEMNZ5gMlQ3nuBrdR-BCD3tK-TLo6x",
    "latitude": 10.2129361,
    "longitude": -83.7958212,
    "type": "Restaurant"
  },
  {
    "name": "Bar y Restaurante Mariscos del Caribe",
    "address_1": "97JH+Q4Q",
    "address_2": "Pococí",
    "website": "",
    "rating": 4.4,
    "reviews_count": 7,
    "thumbnail": "",
    "latitude": 10.3819702,
    "longitude": -83.7221537,
    "type": "Seafood restaurant"
  },
  {
    "name": "Rolo's Bar 0026 Grill",
    "address_1": "200 metros oeste del, Cementerio Municipal de Guápiles",
    "address_2": "Barrio Los Ángeles, Limón, Guápiles",
    "website": "menurest-cr.web.app",
    "rating": "",
    "reviews_count": "",
    "thumbnail": "https://lh5.googleusercontent.com/p/AF1QipMInWKcyqfhFfwAxlYDf1Lqb4RcQoBwcf24Corc",
    "latitude": 10.2127451,
    "longitude": -83.7969685,
    "type": "Restaurant"
  },
  {
    "name": "SODA JAIKIA",
    "address_1": "HFHG+PJP",
    "address_2": "San Francisco de Tortuguero, Limón, Pococí",
    "website": "",
    "rating": 4.8,
    "reviews_count": 5,
    "thumbnail": "https://lh5.googleusercontent.com/p/AF1QipPN0kdrc7Wxk1n_36rl_J35YfN8iDkfBkppe8wE",
    "latitude": 10.5793308,
    "longitude": -83.5234114,
    "type": "Restaurant"
  },
  {
    "name": "Pool Palermo",
    "address_1": "Limón, Pococí",
    "address_2": "Costa Rica",
    "website": "",
    "rating": 4.7,
    "reviews_count": 30,
    "thumbnail": "https://lh5.googleusercontent.com/p/AF1QipOnwQYciE5bSUpOuwkKRSr_25ctFVCjpChT0HT6",
    "latitude": 10.3698012,
    "longitude": -83.7431228,
    "type": "Fast food restaurant"
  },
  {
    "name": "Restaurante caribeño",
    "address_1": "97F2+WRR",
    "address_2": "Limón, Pococí",
    "website": "",
    "rating": 4.5,
    "reviews_count": 6,
    "thumbnail": "https://lh5.googleusercontent.com/p/AF1QipN4kiDgMjETs7BMK0F9WxydCKZ7xKAd9BVIBPRl",
    "latitude": 10.3748596,
    "longitude": -83.7479889,
    "type": "Bar"
  },
  {
    "name": "Bar y restaurante El Trapiche",
    "address_1": "en suerre de Jiménez-pococi 500 metros éste de la Escuela suerre , Limón",
    "address_2": "Limón, Jiménez",
    "website": "",
    "rating": 4.4,
    "reviews_count": 53,
    "thumbnail": "https://lh5.googleusercontent.com/p/AF1QipPCN1V7mEeUMN5TUb24wNGaVwIFwhwcV9ug915V",
    "latitude": 10.1866863,
    "longitude": -83.7550609,
    "type": "Restaurant"
  },
  {
    "name": "La Trinacria Pizzeria Restaurante",
    "address_1": "80 mts Oeste Iglesia Catolica",
    "address_2": "Limón, Jiménez",
    "website": "",
    "rating": 4.7,
    "reviews_count": 292,
    "thumbnail": "https://lh5.googleusercontent.com/p/AF1QipP6CgHsWeLiinOqEZ7mjb2jOOsecin5ysECF0aq",
    "latitude": 10.208172,
    "longitude": -83.742227,
    "type": "Pizza restaurant"
  },
  {
    "name": "La Pavona (Embarcadero a Tortuguero)",
    "address_1": "GCV3+V8C",
    "address_2": "Limón, Roxana",
    "website": "",
    "rating": 3.9,
    "reviews_count": 1775,
    "thumbnail": "https://lh5.googleusercontent.com/p/AF1QipPolZKvjYW0LIKoMbQ8cBIwkfOAGLGSW65jq22P",
    "latitude": 10.5446768,
    "longitude": -83.5967286,
    "type": "Restaurant"
  },
  {
    "name": "Taco Bell Guápiles",
    "address_1": "6636+46F",
    "address_2": "Ctra. Braulio Carrillo",
    "website": "tacobell.co.cr",
    "rating": 4.2,
    "reviews_count": 780,
    "thumbnail": "https://lh5.googleusercontent.com/p/AF1QipMht6fdPQ-yNaStvel46JvkMcodMtaW144_V-t9",
    "latitude": 10.2028112,
    "longitude": -83.7894416,
    "type": "Fast food restaurant"
  },
  {
    "name": "Centro Social Bar La Condesa Liss",
    "address_1": "C7MH+9XR",
    "address_2": "Limón, Los Angeles de Cariari",
    "website": "",
    "rating": 3.8,
    "reviews_count": 19,
    "thumbnail": "https://lh5.googleusercontent.com/p/AF1QipObMdU_yO8UgjuuaJhvoqPqTT-HKImE1o97DYrb",
    "latitude": 10.4334807,
    "longitude": -83.7201074,
    "type": "Family restaurant"
  },
  {
    "name": "Rapi Mariscos",
    "address_1": "6666+Q4H",
    "address_2": "Av. 6",
    "website": "",
    "rating": "",
    "reviews_count": "",
    "thumbnail": "",
    "latitude": 10.2119449,
    "longitude": -83.7896489,
    "type": "Seafood restaurant"
  },
  {
    "name": "Tico Food",
    "address_1": "Ticabán Pococí, junto a Super Amistad 2",
    "address_2": "Limón, Ticabán",
    "website": "",
    "rating": "",
    "reviews_count": "",
    "thumbnail": "",
    "latitude": 10.4029051,
    "longitude": -83.8316136,
    "type": "Takeout Restaurant"
  },
  {
    "name": "Dorling Bakery",
    "address_1": "GFVW+3H2",
    "address_2": "Limón, Roxana",
    "website": "",
    "rating": 4.2,
    "reviews_count": 94,
    "thumbnail": "https://lh5.googleusercontent.com/p/AF1QipMH28BE0-kaGQyaMV6mmrMp6im6hP4ulB3h1t98",
    "latitude": 10.5426349,
    "longitude": -83.5036113,
    "type": "Restaurant"
  },
  {
    "name": "Budda Cafe",
    "address_1": "GFRW+PH3",
    "address_2": "Limón Province, Roxana",
    "website": "buddacafe.com",
    "rating": 4.2,
    "reviews_count": 413,
    "thumbnail": "https://lh5.googleusercontent.com/p/AF1QipPNzY3LQlsZ_AxYOYuXswxOVZtSaT2JTfIe5ork",
    "latitude": 10.5417726,
    "longitude": -83.5035684,
    "type": "Italian restaurant"
  },
  {
    "name": "Pollolandia Cariari",
    "address_1": "9758+J5P",
    "address_2": "Limón, Roxana",
    "website": "pollolandia.com",
    "rating": 3.8,
    "reviews_count": 161,
    "thumbnail": "https://lh5.googleusercontent.com/p/AF1QipPUFgVpPo3pkzqiyx0Vaj_CzPgcFLNrFLjBQcY",
    "latitude": 10.3590894,
    "longitude": -83.7345559,
    "type": "Restaurant"
  },
  {
    "name": "Salon Vitrales",
    "address_1": "67Q8+J3Q",
    "address_2": "Limón Province, Jiménez",
    "website": "",
    "rating": 4.6,
    "reviews_count": 135,
    "thumbnail": "https://lh5.googleusercontent.com/p/AF1QipNfLUycE3ZiNMJZ-LU_T98PLK-hsV8qjxuigq5g",
    "latitude": 10.2390963,
    "longitude": -83.7347699,
    "type": "Restaurant"
  },
  {
    "name": "Soda D'Leite",
    "address_1": "70205 Limón Tortuguero",
    "address_2": 70205,
    "website": "soda-dleite.negocio.site",
    "rating": 4.5,
    "reviews_count": 96,
    "thumbnail": "https://lh5.googleusercontent.com/p/AF1QipMGTBjQ0HrvvvPhVYAFDDeUDjgItRKe_JfuRFQE",
    "latitude": 10.5410638,
    "longitude": -83.5034535,
    "type": "Restaurant"
  },
  {
    "name": "Taylor's Place Tortuguero Costa Rica",
    "address_1": "Limón Province, Pococí",
    "address_2": 70206,
    "website": "facebook.com",
    "rating": 4.7,
    "reviews_count": 74,
    "thumbnail": "https://lh5.googleusercontent.com/p/AF1QipNQqPUIqyWy3-qVaQnvEbrDvF8TWm5BqxJj57PS",
    "latitude": 10.539582,
    "longitude": -83.5027635,
    "type": "Restaurant"
  },
  {
    "name": "Restaurante Big Boy",
    "address_1": "C. Seis",
    "address_2": "Limón, Jiménez",
    "website": "",
    "rating": 4.4,
    "reviews_count": 359,
    "thumbnail": "https://lh5.googleusercontent.com/p/AF1QipN_bkPlZJHTsWAWU8V0x7LfPBPg3eJDfQnElEMl",
    "latitude": 10.262599,
    "longitude": -83.7157033,
    "type": "Family restaurant"
  },
  {
    "name": "Chichiiis Bar y Restaurante",
    "address_1": "Jimenez, 100 oeste Colono Agropecuario sobre",
    "address_2": "Ctra. Braulio Carrillo",
    "website": "",
    "rating": 4.9,
    "reviews_count": 9,
    "thumbnail": "https://lh5.googleusercontent.com/p/AF1QipOSAZzQ2merf_3RKiguDe-5iRtoPJ8NTGXKIZsh",
    "latitude": 10.2050322,
    "longitude": -83.7483062,
    "type": "Bar 0026 grill"
  },
  {
    "name": "Pizza Ranch Cariari",
    "address_1": "9746+F7C",
    "address_2": "247, Limón Province, Pococí, Costa Rica Frente al Hotel vista al Tortuguero Limón Pococí",
    "website": "pizzaranchcr.com",
    "rating": 4.3,
    "reviews_count": 52,
    "thumbnail": "https://lh5.googleusercontent.com/p/AF1QipM8jJBow_YYppbGhDcOl_3YGk4y1EcPNEddU5xG",
    "latitude": 10.3563966,
    "longitude": -83.7370834,
    "type": "Pizza restaurant"
  },
  {
    "name": "Restaurante Tai Pen",
    "address_1": "6755+PFM",
    "address_2": "Unnamed Road",
    "website": "",
    "rating": 4.3,
    "reviews_count": 54,
    "thumbnail": "https://lh5.googleusercontent.com/p/AF1QipMyu9nSl9Glc2CibmxkD-UX55rUg6GnG7gsGi0t",
    "latitude": 10.2093346,
    "longitude": -83.7413254,
    "type": "Restaurant"
  },
  {
    "name": "Ranchito las tilapias",
    "address_1": "767W+W3J",
    "address_2": "Limón, Roxana",
    "website": "",
    "rating": 4.5,
    "reviews_count": 30,
    "thumbnail": "https://lh5.googleusercontent.com/p/AF1QipNO6ynaTC_9n-hZbVeHGp3s_gx2S0GZC762jazB",
    "latitude": 10.264845,
    "longitude": -83.7548517,
    "type": "Bar"
  },
  {
    "name": "Restaurante Providencia",
    "address_1": "6745+538",
    "address_2": "Limón, Jiménez",
    "website": "",
    "rating": 4.4,
    "reviews_count": 74,
    "thumbnail": "https://lh5.googleusercontent.com/p/AF1QipPjvb6YibHAGKGhqZSZOTi1vJq_3U4irVJ6Luvo",
    "latitude": 10.2054147,
    "longitude": -83.7422987,
    "type": "Restaurant"
  },
  {
    "name": "Bar y chicahrronera que bueno",
    "address_1": "557H+FC2",
    "address_2": "Limón, Guápiles",
    "website": "",
    "rating": 5,
    "reviews_count": 1,
    "thumbnail": "",
    "latitude": 10.1636286,
    "longitude": -83.8214769,
    "type": "Bar"
  },
  {
    "name": "Bubba.",
    "address_1": "A la par de la Delegación Limón Cariari",
    "address_2": 70205,
    "website": "facebook.com",
    "rating": 5,
    "reviews_count": 6,
    "thumbnail": "https://lh5.googleusercontent.com/p/AF1QipPi4NvcRfJiwBu3YLoOm5se37IsG8i9GBDdB_eh",
    "latitude": 10.3615989,
    "longitude": -83.7339085,
    "type": "Restaurant"
  },
  {
    "name": "Donde Richard",
    "address_1": "200m Nor-Oeste del muelle principal, a mano derecha Pococí, Colorado, Tortuguero Limón CR 70206",
    "address_2": "Limón",
    "website": "donde-richard.negocio.site",
    "rating": 4.6,
    "reviews_count": 167,
    "thumbnail": "https://lh5.googleusercontent.com/p/AF1QipOxQCUCbfjhcHIHpFwZglg2zB6oUFyyHjzyGHk",
    "latitude": 10.5429935,
    "longitude": -83.5036063,
    "type": "Restaurant"
  }
]