[
  {
    "name": "El Patio Bar 0026 Grill",
    "address_1": "247 Lim贸n Lim贸n",
    "address_2": "Pococ铆",
    "website": "",
    "rating": 4.5,
    "reviews_count": 17,
    "thumbnail": "https://lh5.googleusercontent.com/p/AF1QipPFlTB7LLRA6i3od_gyiUO-YH7IJDMA0syQVtai",
    "latitude": 10.3592583,
    "longitude": -83.7339011,
    "type": "Restaurant"
  },
  {
    "name": "Restaurante Rancho El Rinconcito",
    "address_1": "6452+P2H",
    "address_2": "Lim贸n, Gu谩piles",
    "website": "",
    "rating": 4.4,
    "reviews_count": 44,
    "thumbnail": "https://lh5.googleusercontent.com/p/AF1QipOMnM-fqPPqjvY8ChVdTxIMTWAT0k34CBseNxnt",
    "latitude": 10.2093241,
    "longitude": -83.8998843,
    "type": "Restaurant"
  },
  {
    "name": "Mi Ni帽o",
    "address_1": "70205 Limon Pococi",
    "address_2": "Costa Rica",
    "website": "",
    "rating": 4.6,
    "reviews_count": 294,
    "thumbnail": "https://lh5.googleusercontent.com/p/AF1QipPuF46-IgiH7rKrjdNrO-x5hm8K4DwuDkafqKLK",
    "latitude": 10.5406063,
    "longitude": -83.5035373,
    "type": "Restaurant"
  },
  {
    "name": "El Ranchito Los Abuelos",
    "address_1": "Richard",
    "address_2": "1km al este del Cruce",
    "website": "",
    "rating": 4.8,
    "reviews_count": 4,
    "thumbnail": "https://lh5.googleusercontent.com/p/AF1QipNTbbm7NXe4LLvpPh2HgqSJTvsS_6WPr1A5ruSy",
    "latitude": 10.2685444,
    "longitude": -83.7634113,
    "type": "Restaurant"
  },
  {
    "name": "Almosa",
    "address_1": "50 mts al oeste de pollos Kliver",
    "address_2": "Costa Rica",
    "website": "es-la.facebook.com",
    "rating": 4.3,
    "reviews_count": 208,
    "thumbnail": "https://lh5.googleusercontent.com/p/AF1QipO9ar1JCnA5f5cnmoDUkkh6ikg8ZU-RUX60K1ct",
    "latitude": 10.2136701,
    "longitude": -83.7910975,
    "type": "Restaurant"
  },
  {
    "name": "Camar贸n Dorado del Atl谩ntico",
    "address_1": "9758+VF4",
    "address_2": "Lim贸n, Pococ铆",
    "website": "",
    "rating": 5,
    "reviews_count": 1,
    "thumbnail": "https://lh5.googleusercontent.com/p/AF1QipOlNgiHhDQoOaIZiJbmNPeHjr63d-rWyotPnXeN",
    "latitude": 10.3596293,
    "longitude": -83.7338096,
    "type": "Restaurant"
  },
  {
    "name": "Soda Las Ricas Comidas",
    "address_1": "de la Bomba UNO 75 metros Sur",
    "address_2": "Lim贸n, Pococ铆",
    "website": "",
    "rating": 4.5,
    "reviews_count": 54,
    "thumbnail": "https://lh5.googleusercontent.com/p/AF1QipOnLjbpBqcQpdra1tHm3ScITyCZp7XhuMvEmpag",
    "latitude": 10.3970702,
    "longitude": -83.8303714,
    "type": "Restaurant"
  },
  {
    "name": "El Bule",
    "address_1": "809, Lim贸n La Colonia",
    "address_2": "Pococ铆",
    "website": "",
    "rating": 4.5,
    "reviews_count": 106,
    "thumbnail": "https://lh5.googleusercontent.com/p/AF1QipOVBg3ExbmXCGE0H2VRMH7noN3_rFp5lxGcgcVt",
    "latitude": 10.2468724,
    "longitude": -83.7950413,
    "type": "Restaurant"
  },
  {
    "name": "Restaurante Antojito5",
    "address_1": "9758+524",
    "address_2": "Lim贸n, Roxana",
    "website": "",
    "rating": 4.3,
    "reviews_count": 91,
    "thumbnail": "https://lh5.googleusercontent.com/p/AF1QipPRO398A-mc_B1rf0ETJnrdjyZ5ddHtLJsqkIAt",
    "latitude": 10.3578766,
    "longitude": -83.7349134,
    "type": "Restaurant"
  },
  {
    "name": "Lazo's restaurante",
    "address_1": "Astua Pirie,100metros norte de la iglesia catolica Limon",
    "address_2": "Astua y Pirie",
    "website": "lazos-restaurante.negocio.site",
    "rating": 4.6,
    "reviews_count": 19,
    "thumbnail": "https://lh5.googleusercontent.com/p/AF1QipO5P8YY98LghBisyGUn363T4grmm98sk-Mhpg3H",
    "latitude": 10.3445312,
    "longitude": -83.7379291,
    "type": "Delivery Chinese restaurant"
  },
  {
    "name": "Granja y Restaurante El Corinto",
    "address_1": "La uni贸n Lim贸n Gu谩piles",
    "address_2": 70201,
    "website": "",
    "rating": 4.4,
    "reviews_count": 251,
    "thumbnail": "https://lh5.googleusercontent.com/p/AF1QipPQLLC-FH_ag-7TvVUQK-pIEYvnJrE1PXejjnjd",
    "latitude": 10.2154622,
    "longitude": -83.8755212,
    "type": "Restaurant"
  },
  {
    "name": "El Patio",
    "address_1": "GFRW+JJV",
    "address_2": "Lim贸n Province, Pococ铆",
    "website": "",
    "rating": 4.6,
    "reviews_count": 363,
    "thumbnail": "https://lh5.googleusercontent.com/p/AF1QipMABgfZDCDKGJazLs5VXEidz3PtcMnz9ANOec5F",
    "latitude": 10.5416231,
    "longitude": -83.5034674,
    "type": "Restaurant"
  },
  {
    "name": "Tilapias Melmar",
    "address_1": "En los ngeles de Cariari Del cruze de Sura 2.5k al norte y 400 mts oeste Lim贸n Pococ铆",
    "address_2": 70205,
    "website": "tilapias-melmar.negocio.site",
    "rating": 5,
    "reviews_count": 4,
    "thumbnail": "https://lh5.googleusercontent.com/p/AF1QipMefPoe1zGZZU6WgdgMP204S1H_LkbNQhbbMWdM",
    "latitude": 10.4191119,
    "longitude": -83.7252116,
    "type": "Restaurant"
  },
  {
    "name": "Gorditos Snacks",
    "address_1": "9756+7W3",
    "address_2": "Unnamed Road, Lim贸n",
    "website": "",
    "rating": 4.3,
    "reviews_count": 61,
    "thumbnail": "https://lh5.googleusercontent.com/p/AF1QipPVl02zw-3D_eEqjw-isLeouR2bjC-7LXCuVgQA",
    "latitude": 10.3581352,
    "longitude": -83.7377179,
    "type": "Restaurant"
  },
  {
    "name": "Retaurante Baula de Costa Rica",
    "address_1": "Cariari de Pococ铆 Contiguo a Terminal de Buses Guapile帽os Ruta Parque Nacional Tortugero Limon Cariari",
    "address_2": 70205,
    "website": "",
    "rating": 5,
    "reviews_count": 1,
    "thumbnail": "https://lh5.googleusercontent.com/p/AF1QipP738uAd_jkTXXjziJcAvZOCq1NYLh8Eqji9yVW",
    "latitude": 10.488088,
    "longitude": -83.6135572,
    "type": "Restaurant"
  },
  {
    "name": "Restaurante Onde Timbu",
    "address_1": "45CP+HPF",
    "address_2": "Lim贸n, Gu谩piles",
    "website": "m.facebook.com",
    "rating": 4.7,
    "reviews_count": 254,
    "thumbnail": "https://lh5.googleusercontent.com/p/AF1QipNE_wUXmghK2scnBLkj4PKKPGjTupt8EHW-l8PC",
    "latitude": 10.1214288,
    "longitude": -83.8132184,
    "type": "Restaurant"
  },
  {
    "name": "Bar Restaurante Rancho Cyrus",
    "address_1": "55CP+X8W",
    "address_2": "Lim贸n, Gu谩piles",
    "website": "",
    "rating": 4.4,
    "reviews_count": 29,
    "thumbnail": "https://lh5.googleusercontent.com/p/AF1QipOZb-2GmoVOH0BvECiwla39Be-ep5dbXIy5XBon",
    "latitude": 10.1724832,
    "longitude": -83.8141582,
    "type": "Restaurant"
  },
  {
    "name": "Burger King Pococ铆",
    "address_1": 32,
    "address_2": "Lim贸n Province, Guapiles",
    "website": "",
    "rating": 4.2,
    "reviews_count": 32,
    "thumbnail": "https://lh5.googleusercontent.com/p/AF1QipNZezn41mcRuSTouW9hbKJJna2GAnywnRpRjy7_",
    "latitude": 10.2027689,
    "longitude": -83.7893182,
    "type": "Hamburger restaurant"
  },
  {
    "name": "Bar0026Restaurante D'javu",
    "address_1": "Lim贸n, Pococ铆",
    "address_2": "Costa Rica",
    "website": "negocio.site",
    "rating": 5,
    "reviews_count": 1,
    "thumbnail": "https://lh5.googleusercontent.com/p/AF1QipO4JCUFQ5bcmCBPV-nOPWm84fVp7jVGdbiJS9gX",
    "latitude": 10.3542853,
    "longitude": -83.7336099,
    "type": "Restaurant"
  },
  {
    "name": "El Fog贸n de Lola",
    "address_1": "Gu谩piles, 75 metros sur de la entrada a Sarapiqu铆",
    "address_2": "Jos茅 Mar铆a Castro",
    "website": "mymenuqr.com",
    "rating": 4.5,
    "reviews_count": 3688,
    "thumbnail": "https://lh5.googleusercontent.com/p/AF1QipM6hLOmb8M9jwzQUdrHRS_kMBE2HilCFQzaUhM2",
    "latitude": 10.2109089,
    "longitude": -83.8988433,
    "type": "Family restaurant"
  },
  {
    "name": "Mariscos Camar贸n Vaquero",
    "address_1": "247, Lim贸n",
    "address_2": "Pococ铆",
    "website": "",
    "rating": 4.8,
    "reviews_count": 28,
    "thumbnail": "https://lh5.googleusercontent.com/p/AF1QipOSVErAiiGAyT6o-Tf3ecJw9nBXQ7kl4WjMdaRU",
    "latitude": 10.3321048,
    "longitude": -83.7502016,
    "type": "Seafood restaurant"
  },
  {
    "name": "Restaurante Sabores del Tr贸pico",
    "address_1": "75 metros oeste del cuerpo de bomberos Lim贸n Gu谩piles",
    "address_2": 70201,
    "website": "negocio.site",
    "rating": 4.7,
    "reviews_count": 277,
    "thumbnail": "https://lh5.googleusercontent.com/p/AF1QipMMPX1oGptza_ZtHgy6U7OQpMroHrZFvbRfUk0y",
    "latitude": 10.2154007,
    "longitude": -83.7904617,
    "type": "Restaurant"
  },
  {
    "name": "Restaurante Komalotico",
    "address_1": "652X+WG7",
    "address_2": "Lim贸n Province, Guapiles",
    "website": "",
    "rating": 4.2,
    "reviews_count": 104,
    "thumbnail": "https://lh5.googleusercontent.com/p/AF1QipNr2LajQdFHw4FjmlO3nR6yZow698sfD1Zr3tF9",
    "latitude": 10.2022911,
    "longitude": -83.8012047,
    "type": "Restaurant"
  },
  {
    "name": "Restaurante la Rumba",
    "address_1": "De la Expo Pococi, 1.5 kilometros norte y 500 metros oeste, sobe",
    "address_2": "C. Lilliam",
    "website": "facebook.com",
    "rating": 5,
    "reviews_count": 2,
    "thumbnail": "https://lh5.googleusercontent.com/p/AF1QipP1G8v1jl1msyXxN3MZ_ggAthX4z0PwWKgzm6lw",
    "latitude": 10.2369057,
    "longitude": -83.784094,
    "type": "Restaurant"
  },
  {
    "name": "Restaurante La Bodega",
    "address_1": "56X9+X5",
    "address_2": "Lim贸n Province, Guapiles",
    "website": "",
    "rating": 4.4,
    "reviews_count": 27,
    "thumbnail": "https://lh5.googleusercontent.com/p/AF1QipNcqmqTwAWZNGqN0DmyxugfkYmOIL2ZZ0OG4jAN",
    "latitude": 10.1999638,
    "longitude": -83.7820799,
    "type": "Family restaurant"
  },
  {
    "name": "Bar La Sirena",
    "address_1": "249, Lim贸n",
    "address_2": "Lim贸n, Pococ铆",
    "website": "",
    "rating": 4,
    "reviews_count": 6,
    "thumbnail": "",
    "latitude": 10.394921,
    "longitude": -83.787334,
    "type": "Bar 0026 grill"
  },
  {
    "name": "Restaurante Rancho Cocodrilo",
    "address_1": "Astua Pirie, de la escuela 1 kil贸metro al este Lim贸n",
    "address_2": "Costa Rica",
    "website": "",
    "rating": 4.5,
    "reviews_count": 62,
    "thumbnail": "https://lh5.googleusercontent.com/p/AF1QipPOcRfvzCOv9PW3S6kiFDvinU7NlAMqmM2jTugY",
    "latitude": 10.3261951,
    "longitude": -83.7344983,
    "type": "Family restaurant"
  },
  {
    "name": "La Taberna",
    "address_1": "GFQW+RC9",
    "address_2": "Lim贸n Province, Roxana",
    "website": "",
    "rating": 3.8,
    "reviews_count": 119,
    "thumbnail": "https://lh5.googleusercontent.com/p/AF1QipOh3xxpcdwa9K6EeIrku6ir6upOQCV9UIxlLUxk",
    "latitude": 10.5395385,
    "longitude": -83.503899,
    "type": "Bar 0026 grill"
  },
  {
    "name": "Cafeteria Mar y Ross",
    "address_1": "9767+2PW",
    "address_2": "Lim贸n Province, Roxana",
    "website": "",
    "rating": 4.4,
    "reviews_count": 35,
    "thumbnail": "https://lh5.googleusercontent.com/p/AF1QipOpYaASMDPfn-ymm0lmUAzUbLFZToIp8DVQLnkd",
    "latitude": 10.3601128,
    "longitude": -83.7356822,
    "type": "Restaurant"
  },
  {
    "name": "Pollolandia Semillero",
    "address_1": "247, Lim贸n",
    "address_2": "Pococ铆",
    "website": "",
    "rating": 3.5,
    "reviews_count": 4,
    "thumbnail": "https://lh5.googleusercontent.com/p/AF1QipOaA0YmNDIWNit971D38COKWGNWPQw9baU0E1d3",
    "latitude": 10.3852631,
    "longitude": -83.7174215,
    "type": "Restaurant"
  },
  {
    "name": "Restaurante Rio Blanco",
    "address_1": "Frente a la Subasta El Blanco Lim贸n Gu谩piles",
    "address_2": 70201,
    "website": "",
    "rating": 4.2,
    "reviews_count": 5,
    "thumbnail": "https://lh5.googleusercontent.com/p/AF1QipOsklHROwgrhrZOhj2AC526iwXwFiaOVSZOr-Mb",
    "latitude": 10.2125204,
    "longitude": -83.8376937,
    "type": "Restaurant"
  },
  {
    "name": "Restaurante Sun Ken",
    "address_1": "6688+4FP",
    "address_2": "Barrio Bel茅n, Lim贸n Province, Guapiles",
    "website": "",
    "rating": 4.4,
    "reviews_count": 223,
    "thumbnail": "https://lh5.googleusercontent.com/p/AF1QipOEDRnh8AKlQxxc7zeU1g9cbYoTn1w4fpFoimnN",
    "latitude": 10.2153366,
    "longitude": -83.7837973,
    "type": "Asian restaurant"
  },
  {
    "name": "Rio Corinto",
    "address_1": "6467+PXF, Contiguo al Rio Corinto",
    "address_2": "Lim贸n, Gu谩piles",
    "website": "",
    "rating": 4.2,
    "reviews_count": 488,
    "thumbnail": "https://lh5.googleusercontent.com/p/AF1QipNZ-ZAC9lWD7zUju1LJhPMp6CaSEaWfrNf49DDT",
    "latitude": 10.2118082,
    "longitude": -83.8850831,
    "type": "Restaurant"
  },
  {
    "name": "Soda La Culebra",
    "address_1": "GFRW+7GX",
    "address_2": "Costado sur del Embarcadero El AlmendroTortuguero,",
    "website": "",
    "rating": 4.2,
    "reviews_count": 41,
    "thumbnail": "https://lh5.googleusercontent.com/p/AF1QipOdjAEWe-ulYQEN1RJb_MJGpRsowDShpUNQ_JwZ",
    "latitude": 10.5407251,
    "longitude": -83.5036341,
    "type": "Restaurant"
  },
  {
    "name": "Chicharronera chuchis",
    "address_1": "86MQ+PF8",
    "address_2": "Lim贸n, Pococ铆",
    "website": "",
    "rating": 5,
    "reviews_count": 2,
    "thumbnail": "",
    "latitude": 10.3342968,
    "longitude": -83.7612844,
    "type": "Fast food restaurant"
  },
  {
    "name": "Toli's Caldosas",
    "address_1": "148, Lim贸n Lim贸n",
    "address_2": "Pococ铆",
    "website": "",
    "rating": 4.5,
    "reviews_count": 6,
    "thumbnail": "https://lh5.googleusercontent.com/p/AF1QipMZASJtY8GZadMjP_i8CxTFszBzyf-FRrN_xACP",
    "latitude": 10.3873323,
    "longitude": -83.7180763,
    "type": "Seafood restaurant"
  },
  {
    "name": "Cubillo's Pizza",
    "address_1": "Unnamed Road, Lim贸n Lim贸n",
    "address_2": "Pococ铆",
    "website": "cubillos-pizza.negocio.site",
    "rating": 5,
    "reviews_count": 1,
    "thumbnail": "https://lh5.googleusercontent.com/p/AF1QipOLP7vbu-tPkWydNEFhaAyNdnzYtKv0HgdEYaqw",
    "latitude": 10.4308902,
    "longitude": -83.7822802,
    "type": "Pizza restaurant"
  },
  {
    "name": "El Yugo de Mi Tata",
    "address_1": "635X+HX7",
    "address_2": "Ruta Nacional Primaria 32",
    "website": "",
    "rating": 4.3,
    "reviews_count": 5673,
    "thumbnail": "https://lh5.googleusercontent.com/p/AF1QipMimT7A3UeQgep4iolzBNLK-qgeNC5Pq6hXBSk4",
    "latitude": 10.2089153,
    "longitude": -83.9000666,
    "type": "Restaurant"
  },
  {
    "name": "Rapi2 Restaurante",
    "address_1": "Ciclo Chacon",
    "address_2": "100 metros sur del",
    "website": "rapi2-restaurante.negocio.site",
    "rating": 4.6,
    "reviews_count": 105,
    "thumbnail": "https://lh5.googleusercontent.com/p/AF1QipOpBrIOE9stxk-bACXRXaSnySs49X-eyN-774hx",
    "latitude": 10.2747686,
    "longitude": -83.7838094,
    "type": "Restaurant"
  },
  {
    "name": "omi's",
    "address_1": "247, Lim贸n",
    "address_2": "Pococ铆",
    "website": "facebook.com",
    "rating": 5,
    "reviews_count": 2,
    "thumbnail": "https://lh5.googleusercontent.com/p/AF1QipP1hWZaZdv4IdDWuAhlkB0R58JJNBL0FGw2v9rU",
    "latitude": 10.3581658,
    "longitude": -83.7378113,
    "type": "Restaurant"
  },
  {
    "name": "La Comarca Gastro Park",
    "address_1": "66F9+RGR",
    "address_2": "Lim贸n Province, Guapiles",
    "website": "",
    "rating": 4.5,
    "reviews_count": 226,
    "thumbnail": "https://lh5.googleusercontent.com/p/AF1QipMeexyQYjEPg2DfFGduY6trXR3DKgt_rItKay_1",
    "latitude": 10.2246686,
    "longitude": -83.7810091,
    "type": "Family restaurant"
  },
  {
    "name": "Tilapera palma",
    "address_1": "Lim贸n, Pococ铆",
    "address_2": "Costa Rica",
    "website": "",
    "rating": 4.3,
    "reviews_count": 15,
    "thumbnail": "https://lh5.googleusercontent.com/p/AF1QipMPKY8rZbSDBiB1tWkThS5u6MLC4WZDSRzOQ_5F",
    "latitude": 10.3837705,
    "longitude": -83.7615442,
    "type": "Family restaurant"
  },
  {
    "name": "Restaurante El Unico",
    "address_1": "Calle 5 Lim贸n",
    "address_2": "Lim贸n Province, Guapiles",
    "website": "negocio.site",
    "rating": 4.2,
    "reviews_count": 356,
    "thumbnail": "https://lh5.googleusercontent.com/p/AF1QipMf5jssrK04M7EhG_JCKJ1S-cz8U_dyMOS13DCq",
    "latitude": 10.2131042,
    "longitude": -83.7870864,
    "type": "Asian restaurant"
  },
  {
    "name": "Mr Pig",
    "address_1": "97HG+RQ9",
    "address_2": "Lim贸n, Pococ铆",
    "website": "",
    "rating": 4.6,
    "reviews_count": 59,
    "thumbnail": "https://lh5.googleusercontent.com/p/AF1QipMUKEb2yHS8P5GZ2ZWQL9LK8TIHXX7nMYbi6nF_",
    "latitude": 10.3795293,
    "longitude": -83.7230213,
    "type": "Restaurant"
  },
  {
    "name": "Rio Danta Restaurant",
    "address_1": "654C+F4M",
    "address_2": "C. Danta",
    "website": "",
    "rating": 4.1,
    "reviews_count": 142,
    "thumbnail": "https://lh5.googleusercontent.com/p/AF1QipPlA5rJ9VCU_GTYNbrfB8hobdOInfDPf2858loi",
    "latitude": 10.206201,
    "longitude": -83.8297103,
    "type": "Restaurant"
  },
  {
    "name": "Rancho La Ponderosa",
    "address_1": "97PM+Q6W",
    "address_2": "cinco, C. Campo Tres",
    "website": "",
    "rating": 3.8,
    "reviews_count": 5,
    "thumbnail": "",
    "latitude": 10.3869836,
    "longitude": -83.7169254,
    "type": "Restaurant"
  },
  {
    "name": "Kiosko PIPA",
    "address_1": "9726+RXQ",
    "address_2": 247,
    "website": "",
    "rating": 5,
    "reviews_count": 5,
    "thumbnail": "https://lh5.googleusercontent.com/p/AF1QipOQPh0ET-dK2v_sF3MlTO64GIJMRaoJ16whx2dG",
    "latitude": 10.3520838,
    "longitude": -83.7375093,
    "type": "Brunch restaurant"
  },
  {
    "name": "Eli's Restaurante",
    "address_1": "C. 12A",
    "address_2": "Barrio Los ngeles, Lim贸n, Gu谩piles",
    "website": "facebook.com",
    "rating": 4.6,
    "reviews_count": 34,
    "thumbnail": "https://lh5.googleusercontent.com/p/AF1QipModVNZJRcokKBdBcya9sX18ibZUYF36s-akQOh",
    "latitude": 10.2061317,
    "longitude": -83.7967322,
    "type": "Restaurant"
  },
  {
    "name": "El Ceibo",
    "address_1": "662C+VC8",
    "address_2": "Ruta Nacional Primaria 32",
    "website": "",
    "rating": 4,
    "reviews_count": 529,
    "thumbnail": "https://lh5.googleusercontent.com/p/AF1QipP6vr3gYVaMiIcyBp2zmVoIoaaN0rGm2oovEfh0",
    "latitude": 10.2021723,
    "longitude": -83.7789128,
    "type": "Restaurant"
  },
  {
    "name": "Restaurante Criollos bar sport",
    "address_1": "70201 Lim贸n Gu谩piles",
    "address_2": 70201,
    "website": "",
    "rating": 4.5,
    "reviews_count": 8,
    "thumbnail": "https://lh5.googleusercontent.com/p/AF1QipOsUtNlxPY8ABF0m6eF4AJ2nlngSEDpOUptv5YR",
    "latitude": 10.2022431,
    "longitude": -83.7825581,
    "type": "Restaurant"
  },
  {
    "name": "Rancho los Duranes",
    "address_1": "85M7+47V",
    "address_2": "Balastre, Lim贸n, Pococ铆",
    "website": "",
    "rating": 5,
    "reviews_count": 1,
    "thumbnail": "",
    "latitude": 10.3328528,
    "longitude": -83.8368158,
    "type": "Family restaurant"
  },
  {
    "name": "La chinita",
    "address_1": "9796+X86",
    "address_2": "Lim贸n, Pococ铆",
    "website": "",
    "rating": "",
    "reviews_count": "",
    "thumbnail": "",
    "latitude": 10.3699038,
    "longitude": -83.7392329,
    "type": "Hamburger restaurant"
  },
  {
    "name": "Ruta 415",
    "address_1": "39RX+2M2",
    "address_2": "Esquina Norte de la Plaza de Deportes, La Alegr铆a Lim贸n La Alegr铆a",
    "website": "facebook.com",
    "rating": 4.7,
    "reviews_count": 37,
    "thumbnail": "https://lh5.googleusercontent.com/p/AF1QipNGA6Z9iJabsvdZke4fn9d6VAdjybb0UIihszSr",
    "latitude": 10.0900233,
    "longitude": -83.6008539,
    "type": "Restaurant"
  },
  {
    "name": "La taberna de Jou",
    "address_1": "C. Emilia",
    "address_2": "Lim贸n, Gu谩piles",
    "website": "",
    "rating": 4.8,
    "reviews_count": 46,
    "thumbnail": "https://lh5.googleusercontent.com/p/AF1QipNEbtvqDaNA-aQfdG5SytH40BzZmTOTFLKZVqiD",
    "latitude": 10.2076131,
    "longitude": -83.7814819,
    "type": "Bar 0026 grill"
  },
  {
    "name": "Soda Oeste",
    "address_1": "249, Lim贸n",
    "address_2": "Pococ铆",
    "website": "",
    "rating": 4.3,
    "reviews_count": 3,
    "thumbnail": "",
    "latitude": 10.4069969,
    "longitude": -83.7504269,
    "type": "Restaurant"
  },
  {
    "name": "La Trocha",
    "address_1": "6623+VMG",
    "address_2": "C. La Trocha",
    "website": "",
    "rating": 4.2,
    "reviews_count": 508,
    "thumbnail": "https://lh5.googleusercontent.com/p/AF1QipPDIcDkqeKqNiPgGznKSHzOFybhIQzpXQ1lxGc-",
    "latitude": 10.2021872,
    "longitude": -83.7957941,
    "type": "Restaurant"
  },
  {
    "name": "Ranchito MariaMari",
    "address_1": "100mts sur 100mts oeste de la escuela Iztar煤 Lim贸n",
    "address_2": "IZTAR",
    "website": "",
    "rating": "",
    "reviews_count": "",
    "thumbnail": "https://lh5.googleusercontent.com/p/AF1QipNqgFgj30A8ToHBTHfjdMBKBtFKITPnxTpBfpfF",
    "latitude": 10.3718334,
    "longitude": -83.8359158,
    "type": "Takeout restaurant"
  },
  {
    "name": "Restaurante Piscina",
    "address_1": "6689+Q54, Hotel 0026 Country Club Suerre",
    "address_2": 247,
    "website": "",
    "rating": 4.3,
    "reviews_count": 132,
    "thumbnail": "https://lh5.googleusercontent.com/p/AF1QipPyOzZ70DGNToY2Ct7m5nyK2Nxfo_a3OnfoV5bA",
    "latitude": 10.2168979,
    "longitude": -83.7820434,
    "type": "Restaurant"
  },
  {
    "name": "Bar y restaurante El Trapiche",
    "address_1": "en suerre de Jim茅nez-pococi 500 metros 茅ste de la Escuela suerre , Lim贸n",
    "address_2": "Lim贸n, Jim茅nez",
    "website": "",
    "rating": 4.4,
    "reviews_count": 53,
    "thumbnail": "https://lh5.googleusercontent.com/p/AF1QipPCN1V7mEeUMN5TUb24wNGaVwIFwhwcV9ug915V",
    "latitude": 10.1866863,
    "longitude": -83.7550609,
    "type": "Restaurant"
  },
  {
    "name": "Pizzeria Amadamia",
    "address_1": "9768+7J5",
    "address_2": "Lim贸n, Pococ铆",
    "website": "facebook.com",
    "rating": 4.7,
    "reviews_count": 17,
    "thumbnail": "",
    "latitude": 10.3606398,
    "longitude": -83.73339,
    "type": "Restaurant"
  },
  {
    "name": "Restaurante Mi Ni帽o 2",
    "address_1": "Lim贸n, Roxana",
    "address_2": "Costa Rica",
    "website": "",
    "rating": 3.5,
    "reviews_count": 86,
    "thumbnail": "https://lh5.googleusercontent.com/p/AF1QipPOR8Gw6MyPn_1F2L_1_hMII3bxzFhvGZS9Znjc",
    "latitude": 10.5396377,
    "longitude": -83.5037689,
    "type": "Restaurant"
  },
  {
    "name": "Soda La Marina",
    "address_1": "Marina",
    "address_2": "Lim贸n, Gu谩piles",
    "website": "",
    "rating": 4.2,
    "reviews_count": 207,
    "thumbnail": "https://lh5.googleusercontent.com/p/AF1QipMF7LH-UXD9tW9XCSGHszhAc-9Z8piIAUs69Qfw",
    "latitude": 10.2129719,
    "longitude": -83.8456714,
    "type": "Down home cooking restaurant"
  },
  {
    "name": "Tortilleria Tipica y Mas",
    "address_1": "200 metros oeste del cruce de",
    "address_2": "Lim贸n, Pococ铆",
    "website": "facebook.com",
    "rating": 4.1,
    "reviews_count": 8,
    "thumbnail": "https://lh5.googleusercontent.com/p/AF1QipMk0FxZRehHLBN7HmkisDEqyoSaqJche8h8Rls3",
    "latitude": 10.210584,
    "longitude": -83.899273,
    "type": "Restaurant"
  },
  {
    "name": "Restaurante Los Pavones",
    "address_1": "48CH+W7F",
    "address_2": "Unnamed Road",
    "website": "",
    "rating": 4.5,
    "reviews_count": 21,
    "thumbnail": "https://lh5.googleusercontent.com/p/AF1QipPnZHZG9n-7V0O5UeMMT4csjkpB0nSRlsblj03Q",
    "latitude": 10.1223236,
    "longitude": -83.6718371,
    "type": "Family restaurant"
  },
  {
    "name": "Gochi Bowl",
    "address_1": "C. 2 7",
    "address_2": "Lim贸n Province, Guapiles",
    "website": "facebook.com",
    "rating": "",
    "reviews_count": "",
    "thumbnail": "https://lh5.googleusercontent.com/p/AF1QipNLRLsQi_igiGl3CnxX7p3Vt_K5TJ6YCM15_2DJ",
    "latitude": 10.2163154,
    "longitude": -83.7913958,
    "type": "Restaurant"
  },
  {
    "name": "Dorling Bakery",
    "address_1": "GFVW+3H2",
    "address_2": "Lim贸n, Roxana",
    "website": "",
    "rating": 4.2,
    "reviews_count": 94,
    "thumbnail": "https://lh5.googleusercontent.com/p/AF1QipMH28BE0-kaGQyaMV6mmrMp6im6hP4ulB3h1t98",
    "latitude": 10.5426349,
    "longitude": -83.5036113,
    "type": "Restaurant"
  },
  {
    "name": "Oz0026Mar Caldozas",
    "address_1": "00000000 Lim贸n",
    "address_2": "Costa Rica",
    "website": "",
    "rating": "",
    "reviews_count": "",
    "thumbnail": "https://lh5.googleusercontent.com/p/AF1QipMzX6EWbyf0s0wQZXAM3vhkj8spj5Lv_9U4AM4Y",
    "latitude": 10.3857974,
    "longitude": -83.7168472,
    "type": "Restaurant"
  },
  {
    "name": "Bar 0026 Restaurante Marisquer铆a Acuario",
    "address_1": "Lim贸n, Pococ铆",
    "address_2": "Costa Rica",
    "website": "facebook.com",
    "rating": 3.8,
    "reviews_count": 4,
    "thumbnail": "https://lh5.googleusercontent.com/p/AF1QipMSeF5YmPRQMzd3cubpZhjnFTMFu1H7kcULxXbg",
    "latitude": 10.3578528,
    "longitude": -83.7349255,
    "type": "Restaurant"
  },
  {
    "name": "Restaurante China Garden",
    "address_1": "Pocora, Lim贸n, sobre ruta 32, 100 este de Almacenes El Colono de",
    "address_2": "Lim贸n, Pocora",
    "website": "",
    "rating": 4.4,
    "reviews_count": 74,
    "thumbnail": "https://lh5.googleusercontent.com/p/AF1QipPP2XHDp9j27MLvHI2M3ETjnqQg1_U1Ly9deIma",
    "latitude": 10.1678099,
    "longitude": -83.6059335,
    "type": "Asian restaurant"
  },
  {
    "name": "Soda Lupe",
    "address_1": "Cariari Limon Tortuguero",
    "address_2": 70205,
    "website": "soda-lupe.negocio.site",
    "rating": 4.3,
    "reviews_count": 49,
    "thumbnail": "https://lh5.googleusercontent.com/p/AF1QipPydA-Nb95ChwpF1AQHTC2l3ltMMKFoJz1R1V0A",
    "latitude": 10.4657853,
    "longitude": -83.6555358,
    "type": "Restaurant"
  },
  {
    "name": "Restaurante El Rubio",
    "address_1": "Del Registro civil 50 al sur y 200 al este",
    "address_2": "Lim贸n, Gu谩piles",
    "website": "",
    "rating": 4.2,
    "reviews_count": 395,
    "thumbnail": "https://lh5.googleusercontent.com/p/AF1QipMe1LVdfDhIjrQQS81QkNaJ16G67HvkA9uS-6Yk",
    "latitude": 10.2051551,
    "longitude": -83.7862007,
    "type": "Restaurant"
  },
  {
    "name": "El Spot",
    "address_1": "S煤per el Ahorro",
    "address_2": "Diagonal a",
    "website": "",
    "rating": 5,
    "reviews_count": 2,
    "thumbnail": "https://lh5.googleusercontent.com/p/AF1QipMqszJNUcjAHfpptm1u9zJK9riOEYEzIxu7avOT",
    "latitude": 10.3610582,
    "longitude": -83.7324802,
    "type": "Family restaurant"
  },
  {
    "name": "Restaurante Ca帽o Blanco",
    "address_1": "7JPR+MQQ",
    "address_2": "Ruta Nacional Treciaria 806",
    "website": "",
    "rating": 3.8,
    "reviews_count": 140,
    "thumbnail": "https://lh5.googleusercontent.com/p/AF1QipOMx4t5P9GI0TiOq8y6rjZDb4pjBmvfFCt7-LvL",
    "latitude": 10.2867244,
    "longitude": -83.3580029,
    "type": "Restaurant"
  },
  {
    "name": "Restaurante Marisquer铆a la Trocha",
    "address_1": "50 METROS OESTE DE LA NISSAN",
    "address_2": "Lim贸n, Gu谩piles",
    "website": "",
    "rating": "",
    "reviews_count": "",
    "thumbnail": "https://lh5.googleusercontent.com/p/AF1QipNV2vZJMd9ePPt4u0kQ6S7B7PaAju5IUxT8gWGS",
    "latitude": 10.2136788,
    "longitude": -83.7890894,
    "type": "Seafood restaurant"
  },
  {
    "name": "Pizza Hut Pococ铆",
    "address_1": "6636+49F",
    "address_2": "Lim贸n Province, Guapiles",
    "website": "pizzahutcr.com",
    "rating": 4.1,
    "reviews_count": 491,
    "thumbnail": "https://lh5.googleusercontent.com/p/AF1QipMo2WLjiFH_kIUUxpSx6W528vDKrfxtEtmWxIcr",
    "latitude": 10.2028148,
    "longitude": -83.7890822,
    "type": "Pizza restaurant"
  },
  {
    "name": "Soda Rooss",
    "address_1": "La Colonia",
    "address_2": "Lim贸n Province, Guapiles",
    "website": "facebook.com",
    "rating": "",
    "reviews_count": "",
    "thumbnail": "",
    "latitude": 10.2469632,
    "longitude": -83.7999769,
    "type": "Restaurant"
  },
  {
    "name": "Restaurante Baula de Costa Rica",
    "address_1": "Lim贸n, Pococ铆",
    "address_2": "Costa Rica",
    "website": "",
    "rating": 4,
    "reviews_count": 3,
    "thumbnail": "https://lh5.googleusercontent.com/p/AF1QipM-eqiZZ5U0gD-daVOy_QpBPlO3QXPBlX1QaIB0",
    "latitude": 10.3571473,
    "longitude": -83.7355478,
    "type": "Restaurant"
  },
  {
    "name": "Soda La Negrita",
    "address_1": "F7CR+PR7",
    "address_2": "Lim贸n, Pococ铆",
    "website": "",
    "rating": "",
    "reviews_count": "",
    "thumbnail": "",
    "latitude": 10.4717843,
    "longitude": -83.7079575,
    "type": "Restaurant"
  },
  {
    "name": "Oven Pizza",
    "address_1": "125mts este del Conservatorio San Agust铆n",
    "address_2": "Lim贸n Province, Guapiles",
    "website": "ovenpizza.negocio.site",
    "rating": 4.7,
    "reviews_count": 57,
    "thumbnail": "https://lh5.googleusercontent.com/p/AF1QipMHGhhZF4dbqxO-xpSosQEoSFancvYFFVOQT4iy",
    "latitude": 10.2166859,
    "longitude": -83.7938133,
    "type": "Restaurant"
  },
  {
    "name": "restaurante el deseo",
    "address_1": "Costa Rica",
    "address_2": "Lim贸n Province, Guapiles",
    "website": "",
    "rating": 4.2,
    "reviews_count": 162,
    "thumbnail": "https://lh5.googleusercontent.com/p/AF1QipPlSw89pzw1ke7695wShlPiQl_vmdlPxd8Y40BY",
    "latitude": 10.202531,
    "longitude": -83.7825443,
    "type": "Restaurant"
  },
  {
    "name": "La Primavera La Rita Pococi",
    "address_1": "C6H9+F58",
    "address_2": "Lim贸n, Rita",
    "website": "",
    "rating": 4.2,
    "reviews_count": 40,
    "thumbnail": "https://lh5.googleusercontent.com/p/AF1QipNBGHr5IaFKh_EjJuXajQUYISiJro9M2xERbil2",
    "latitude": 10.4286576,
    "longitude": -83.782032,
    "type": "Pizza takeaway"
  },
  {
    "name": "Pan y pizza Artesanal",
    "address_1": "Pan y pizza Artesanal  Campo 2",
    "address_2": "Lim贸n, Pococ铆",
    "website": "",
    "rating": 5,
    "reviews_count": 2,
    "thumbnail": "https://lh5.googleusercontent.com/p/AF1QipMkWQetqrDNaDlelDemBSGLo8K-XvCHG0SjHixG",
    "latitude": 10.406913,
    "longitude": -83.6926924,
    "type": "Takeout restaurant"
  },
  {
    "name": "Burgers",
    "address_1": "C. 5",
    "address_2": "Lim贸n Province, Guapiles",
    "website": "facebook.com",
    "rating": 4.2,
    "reviews_count": 210,
    "thumbnail": "https://lh5.googleusercontent.com/p/AF1QipM5BPR-Z0jPqXhCGOocdRJXnKSjhaMq8XBZGkUK",
    "latitude": 10.2124482,
    "longitude": -83.7871995,
    "type": "Hamburger restaurant"
  },
  {
    "name": "Pizzeria Victoria Rotulo",
    "address_1": "249, Lim贸n Lim贸n",
    "address_2": "Pococ铆",
    "website": "",
    "rating": "",
    "reviews_count": "",
    "thumbnail": "https://lh5.googleusercontent.com/p/AF1QipM1Fjev2HACxA36GOQc6X-u6N_6mwMAoDMRJIWR",
    "latitude": 10.4230878,
    "longitude": -83.7199136,
    "type": "Pizza restaurant"
  },
  {
    "name": "Marisquer铆a Mar Azul",
    "address_1": "Frente al Cementerio Lim贸n Gu谩piles",
    "address_2": 70201,
    "website": "",
    "rating": 4.4,
    "reviews_count": 517,
    "thumbnail": "https://lh5.googleusercontent.com/p/AF1QipPSYw9igPtEMNZ5gMlQ3nuBrdR-BCD3tK-TLo6x",
    "latitude": 10.2129361,
    "longitude": -83.7958212,
    "type": "Restaurant"
  },
  {
    "name": "La Fonda de Guerrero",
    "address_1": "Av. Central",
    "address_2": "Lim贸n, Gu谩piles",
    "website": "",
    "rating": 4,
    "reviews_count": 165,
    "thumbnail": "https://lh5.googleusercontent.com/p/AF1QipOAi4fDXWLj3EsnFRo2uPz0DRVck_BIRzqyBIQX",
    "latitude": 10.2139206,
    "longitude": -83.7891305,
    "type": "Restaurant"
  },
  {
    "name": "Restaurante Furugui",
    "address_1": "6677+86Q",
    "address_2": "Quebrada Numancia",
    "website": "",
    "rating": 4.4,
    "reviews_count": 15,
    "thumbnail": "https://lh5.googleusercontent.com/p/AF1QipOXce8gAua348aBPEbw304lQ4iIb0dqEqQlrk7N",
    "latitude": 10.2133499,
    "longitude": -83.7868871,
    "type": "Restaurant"
  },
  {
    "name": "Centro Social Los Balcones",
    "address_1": "Route 247 Las Palmitas Limon CR 70205",
    "address_2": "Costa Rica",
    "website": "facebook.com",
    "rating": 4.7,
    "reviews_count": 3,
    "thumbnail": "https://lh5.googleusercontent.com/p/AF1QipN2SI5OdQjgXT8zVS0Mz1FXvP2lgp0dM2oHL8wX",
    "latitude": 10.4452335,
    "longitude": -83.7093968,
    "type": "Bar 0026 grill"
  },
  {
    "name": "Restaurante Mil Sabores",
    "address_1": "3MP5+46W",
    "address_2": "Costado este de la plaza de, deportes, Lim贸n",
    "website": "",
    "rating": 3.9,
    "reviews_count": 28,
    "thumbnail": "https://lh5.googleusercontent.com/p/AF1QipOTIIIedWzQGknAlAuN2zHj7b6s7spt9dEQcQuf",
    "latitude": 10.0853624,
    "longitude": -83.3419076,
    "type": "Restaurant"
  },
  {
    "name": "Nanos",
    "address_1": "97C5+2C4",
    "address_2": "Lim贸n, Pococ铆",
    "website": "",
    "rating": 3.8,
    "reviews_count": 12,
    "thumbnail": "https://lh5.googleusercontent.com/p/AF1QipOabF17QlkFEoyuTRNPtVhvElCIuSbFWuVSwV0i",
    "latitude": 10.3700011,
    "longitude": -83.7414227,
    "type": "Restaurant"
  },
  {
    "name": "Bar y Restaurante Paquito",
    "address_1": "68VP+HJH",
    "address_2": "Lim贸n Province, Guacimo",
    "website": "",
    "rating": 4.4,
    "reviews_count": 194,
    "thumbnail": "https://lh5.googleusercontent.com/p/AF1QipPJjW6PGEDBdH8zOzvqEvi7gA5B7ERvJz52HD-n",
    "latitude": 10.2439425,
    "longitude": -83.663398,
    "type": "Restaurant"
  },
  {
    "name": "Bar Y Restaurante Tabacones",
    "address_1": "6856+6GF",
    "address_2": "Lim贸n, Gu谩cimo",
    "website": "",
    "rating": 4.1,
    "reviews_count": 68,
    "thumbnail": "https://lh5.googleusercontent.com/p/AF1QipPEj56ehQ_edc438rlk92mACsrPRWth9t9p2aLR",
    "latitude": 10.208073,
    "longitude": -83.688688,
    "type": "Bar 0026 grill"
  },
  {
    "name": "Crispy Pollo",
    "address_1": "Cariari, Pococ铆, Lim贸n, Frente al mejor precio Lim贸n Cariari",
    "address_2": 70205,
    "website": "",
    "rating": 4,
    "reviews_count": 1,
    "thumbnail": "https://lh5.googleusercontent.com/p/AF1QipNozzLbE0-qg_05DFde9XclxwUPExtJN8LAnFFI",
    "latitude": 10.3630344,
    "longitude": -83.7335995,
    "type": "Chicken restaurant"
  },
  {
    "name": "Taqueria Taco Pan Las Torres",
    "address_1": "6695+3P7",
    "address_2": "Barrio Coopevigua Uno, Lim贸n Province, Guapiles",
    "website": "",
    "rating": 4.6,
    "reviews_count": 195,
    "thumbnail": "https://lh5.googleusercontent.com/p/AF1QipN5V9cxM7ClVubp9Ni-luV588AI6l90h-vRd1mi",
    "latitude": 10.2176531,
    "longitude": -83.7907073,
    "type": "Fast food restaurant"
  },
  {
    "name": "Nano Burguesas",
    "address_1": "Ludas Food Garden",
    "address_2": "De Mayca, 150m oeste 300m sur",
    "website": "nano-burguesas.ola.click",
    "rating": 5,
    "reviews_count": 1,
    "thumbnail": "https://lh5.googleusercontent.com/p/AF1QipPE7x4Ca1mCCZsYfTY1hIug1LDdWYJRffZTIgaT",
    "latitude": 10.2110158,
    "longitude": -83.7937413,
    "type": "Hamburger restaurant"
  },
  {
    "name": "La Pavona (Embarcadero a Tortuguero)",
    "address_1": "GCV3+V8C",
    "address_2": "Lim贸n, Roxana",
    "website": "",
    "rating": 3.9,
    "reviews_count": 1775,
    "thumbnail": "https://lh5.googleusercontent.com/p/AF1QipPolZKvjYW0LIKoMbQ8cBIwkfOAGLGSW65jq22P",
    "latitude": 10.5446768,
    "longitude": -83.5967286,
    "type": "Restaurant"
  },
  {
    "name": "Restaurante Brisas del R铆o",
    "address_1": "6724+8G9",
    "address_2": "Lim贸n, Jim茅nez",
    "website": "brisasdelriocr.com",
    "rating": 4.4,
    "reviews_count": 306,
    "thumbnail": "https://lh5.googleusercontent.com/p/AF1QipODY9ydOjkJS8ZdYuJWfi1uGWoLurSIZ9DXhjI7",
    "latitude": 10.200791,
    "longitude": -83.743629,
    "type": "Restaurant"
  },
  {
    "name": "Pool Palermo",
    "address_1": "Lim贸n, Pococ铆",
    "address_2": "Costa Rica",
    "website": "",
    "rating": 4.7,
    "reviews_count": 30,
    "thumbnail": "https://lh5.googleusercontent.com/p/AF1QipOtwmqEbthuJXAEwgEwxg0su8fCviL-OaWWAxem",
    "latitude": 10.3698012,
    "longitude": -83.7431228,
    "type": "Fast food restaurant"
  },
  {
    "name": "Sabores Miriel",
    "address_1": 506,
    "address_2": "San Francisco de Tortuguero, Lim贸n",
    "website": "sanfranciscotortuguero.com",
    "rating": 5,
    "reviews_count": 29,
    "thumbnail": "https://lh5.googleusercontent.com/p/AF1QipMkvV7M0FMnh9VQllIZWVds0R3d_zfciHGOuVGW",
    "latitude": 10.5791287,
    "longitude": -83.5240111,
    "type": "Restaurant"
  },
  {
    "name": "Bar restaurante Los Vecinos",
    "address_1": "50704 Lim贸n",
    "address_2": "San Francisco de Tortuguero",
    "website": "",
    "rating": 5,
    "reviews_count": 2,
    "thumbnail": "https://lh5.googleusercontent.com/p/AF1QipO07jLvYitjXniftHaLzMikwLUYbcp2yrobgoga",
    "latitude": 10.5786088,
    "longitude": -83.5249918,
    "type": "Bar 0026 grill"
  },
  {
    "name": "La Esponja del Sabor",
    "address_1": "casa amarilla",
    "address_2": "Cariari, Palermo 150 metros despu茅s de antigua pizzer铆a marios pizza, mano izquierda",
    "website": "",
    "rating": "",
    "reviews_count": "",
    "thumbnail": "",
    "latitude": 10.488088,
    "longitude": -83.6135572,
    "type": "Hamburger restaurant"
  },
  {
    "name": "Casa Ambrosia",
    "address_1": "150 oeste de la",
    "address_2": "Iglesia el Progreso",
    "website": "",
    "rating": "",
    "reviews_count": "",
    "thumbnail": "https://lh5.googleusercontent.com/p/AF1QipNlsIAciot9LApvgtx62Taj_cdAK5faKZyuEPLe",
    "latitude": 10.377431,
    "longitude": -83.7462724,
    "type": "Fast food restaurant"
  },
  {
    "name": "Restaurante Vega #1",
    "address_1": "247 Lim贸n",
    "address_2": "Pococ铆",
    "website": "",
    "rating": 4,
    "reviews_count": 4,
    "thumbnail": "https://lh5.googleusercontent.com/p/AF1QipMaVKCSg2Y-hsPLARMcv1RUJRktcsfcxYjlF6Xa",
    "latitude": 10.3569971,
    "longitude": -83.7355647,
    "type": "Restaurant"
  },
  {
    "name": "La Trinacria Pizzeria Restaurante",
    "address_1": "80 mts Oeste Iglesia Catolica",
    "address_2": "Lim贸n, Jim茅nez",
    "website": "",
    "rating": 4.7,
    "reviews_count": 292,
    "thumbnail": "https://lh5.googleusercontent.com/p/AF1QipP6CgHsWeLiinOqEZ7mjb2jOOsecin5ysECF0aq",
    "latitude": 10.208172,
    "longitude": -83.742227,
    "type": "Pizza restaurant"
  },
  {
    "name": "Taco Bell Gu谩piles",
    "address_1": "6636+46F",
    "address_2": "Ctra. Braulio Carrillo",
    "website": "tacobell.co.cr",
    "rating": 4.2,
    "reviews_count": 779,
    "thumbnail": "https://lh5.googleusercontent.com/p/AF1QipMht6fdPQ-yNaStvel46JvkMcodMtaW144_V-t9",
    "latitude": 10.2028112,
    "longitude": -83.7894416,
    "type": "Fast food restaurant"
  },
  {
    "name": "Salon Vitrales",
    "address_1": "67Q8+J3Q",
    "address_2": "Lim贸n Province, Jim茅nez",
    "website": "",
    "rating": 4.6,
    "reviews_count": 135,
    "thumbnail": "https://lh5.googleusercontent.com/p/AF1QipMNYdqPtxqsHxaxXkPnln1vuH-91RRvlhJATu_2",
    "latitude": 10.2390963,
    "longitude": -83.7347699,
    "type": "Restaurant"
  },
  {
    "name": "Restaurante las Terrazas (Hotel De Los Rios)",
    "address_1": "6849+76G",
    "address_2": "Ruta Nacional Primaria 32",
    "website": "",
    "rating": 3.8,
    "reviews_count": 4,
    "thumbnail": "https://lh5.googleusercontent.com/p/AF1QipOn-eGgVlzXUqniCmWwVKLZotWoB_tCUW7AvNaZ",
    "latitude": 10.2056927,
    "longitude": -83.6819244,
    "type": "Restaurant"
  },
  {
    "name": "Bar Restaurante Carrion",
    "address_1": "6859+9GR",
    "address_2": "Lim贸n, Gu谩cimo",
    "website": "",
    "rating": 4.2,
    "reviews_count": 115,
    "thumbnail": "https://lh5.googleusercontent.com/p/AF1QipOt999-FoxbKR9rU1NRNdz572sFGrRR-0gl7MT0",
    "latitude": 10.2084989,
    "longitude": -83.6812269,
    "type": "Restaurant"
  },
  {
    "name": "bar michi",
    "address_1": "69XC+JCP",
    "address_2": "C. El Tajo",
    "website": "",
    "rating": 4,
    "reviews_count": 88,
    "thumbnail": "https://lh5.googleusercontent.com/p/AF1QipPbIBhHMOKr02vDUM1Itr2gEGo6mL5C_Le-Hm0O",
    "latitude": 10.2490816,
    "longitude": -83.6289138,
    "type": "Restaurant"
  },
  {
    "name": "Denis Bar",
    "address_1": "97PM+43W",
    "address_2": "Lim贸n Province, Roxana",
    "website": "",
    "rating": 3.8,
    "reviews_count": 98,
    "thumbnail": "https://lh5.googleusercontent.com/p/AF1QipPYWQcSkdTgZfhhqfzc4A4aUfbxiqGquqFrpWQy",
    "latitude": 10.3853571,
    "longitude": -83.7172825,
    "type": "Bar 0026 grill"
  },
  {
    "name": "La Cuchara de Las Machas",
    "address_1": "75RH+2QV",
    "address_2": "Lim贸n Province, Pococ铆",
    "website": "",
    "rating": 5,
    "reviews_count": 3,
    "thumbnail": "https://lh5.googleusercontent.com/p/AF1QipPeAWHV8DPafWh2rvH85MuyrrAAOnvwpuYdtliW",
    "latitude": 10.290562,
    "longitude": -83.8208006,
    "type": "Fast food restaurant"
  },
  {
    "name": "Soda Las Palmas",
    "address_1": "3GV9+P65",
    "address_2": "Lim贸n Province, Lim贸n",
    "website": "facebook.com",
    "rating": 3.9,
    "reviews_count": 19,
    "thumbnail": "",
    "latitude": 10.0942681,
    "longitude": -83.4818814,
    "type": "Restaurant"
  },
  {
    "name": "La casa del pueblo",
    "address_1": "3FXW+2FV",
    "address_2": "Lim贸n Province, Siquirres",
    "website": "",
    "rating": 4.5,
    "reviews_count": 12,
    "thumbnail": "https://lh5.googleusercontent.com/p/AF1QipM4wMnNJNgxnSkVkFgN_K9t-m7s3o7X3GI-Lj9v",
    "latitude": 10.0976188,
    "longitude": -83.5038409,
    "type": "Restaurant"
  },
  {
    "name": "La Yunta Cariari",
    "address_1": "9757+W65",
    "address_2": "Lim贸n, Pococ铆",
    "website": "",
    "rating": 5,
    "reviews_count": 1,
    "thumbnail": "https://lh5.googleusercontent.com/p/AF1QipO2lAfuStgw810O1mY0gvSD84DTjKmBxCkuCwVz",
    "latitude": 10.3598403,
    "longitude": -83.7372072,
    "type": "Restaurant"
  },
  {
    "name": "Pollo Frito Rey",
    "address_1": "65VW+H8R",
    "address_2": "C. Est谩ndar",
    "website": "",
    "rating": 5,
    "reviews_count": 2,
    "thumbnail": "",
    "latitude": 10.2439909,
    "longitude": -83.804234,
    "type": "Fast food restaurant"
  },
  {
    "name": "Restaurante Sol y Luna",
    "address_1": 32,
    "address_2": "Lim贸n Province, Barbilla",
    "website": "facebook.com",
    "rating": 4.3,
    "reviews_count": 504,
    "thumbnail": "https://lh5.googleusercontent.com/p/AF1QipMLIdJ9kbZRe4vrzDl7w3RyeFk9diHikGxAUi_Z",
    "latitude": 10.0729632,
    "longitude": -83.3699898,
    "type": "Caribbean restaurant"
  },
  {
    "name": "Restaurante El Bamb煤",
    "address_1": "La Colonia San Rafael. De la iglesia cat贸lica 600 oeste y 185 sur",
    "address_2": "Lim贸n, Pococ铆",
    "website": "",
    "rating": 4.4,
    "reviews_count": 73,
    "thumbnail": "https://lh5.googleusercontent.com/p/AF1QipODqdbQ9mRsa82hifLqXkEDMzWF_eQtbsloFks",
    "latitude": 10.2425295,
    "longitude": -83.8105547,
    "type": "Restaurant"
  },
  {
    "name": "Restaurante donde Ceci",
    "address_1": "Calle 3 Lim贸n",
    "address_2": "Lim贸n, Siquirres",
    "website": "",
    "rating": 4.7,
    "reviews_count": 49,
    "thumbnail": "https://lh5.googleusercontent.com/p/AF1QipNh3QNwuOTsXvSl_bc0U6VPutipNcf4a6L9rccL",
    "latitude": 10.0920715,
    "longitude": -83.5057825,
    "type": "Restaurant"
  },
  {
    "name": "Bar y Restaurante Mariscos del Caribe",
    "address_1": "97JH+Q4Q",
    "address_2": "Pococ铆",
    "website": "",
    "rating": 4.4,
    "reviews_count": 7,
    "thumbnail": "",
    "latitude": 10.3819702,
    "longitude": -83.7221537,
    "type": "Seafood restaurant"
  },
  {
    "name": "El Sur谩 Lounge Bar",
    "address_1": "9758+MH5",
    "address_2": "Centro Comercial Avenida Sur谩 Lim贸n",
    "website": "facebook.com",
    "rating": 4.5,
    "reviews_count": 2,
    "thumbnail": "",
    "latitude": 10.3591384,
    "longitude": -83.7335205,
    "type": "Restaurant"
  },
  {
    "name": "Churrasquer铆a y Carnicer铆a Guerrero",
    "address_1": "Barrio Pinares, Lim贸n Province, Guapiles",
    "address_2": "Costa Rica",
    "website": "facebook.com",
    "rating": 4.4,
    "reviews_count": 361,
    "thumbnail": "https://lh5.googleusercontent.com/p/AF1QipOuJqIDS1nO8YEaK72AfulNxT1zfb6WrS_PHrP9",
    "latitude": 10.2116224,
    "longitude": -83.7815287,
    "type": "Restaurant"
  },
  {
    "name": "SODA JAIKIA",
    "address_1": "HFHG+PJP",
    "address_2": "San Francisco de Tortuguero, Lim贸n, Pococ铆",
    "website": "",
    "rating": 4.8,
    "reviews_count": 5,
    "thumbnail": "https://lh5.googleusercontent.com/p/AF1QipPN0kdrc7Wxk1n_36rl_J35YfN8iDkfBkppe8wE",
    "latitude": 10.5793308,
    "longitude": -83.5234114,
    "type": "Restaurant"
  },
  {
    "name": "Budda Cafe",
    "address_1": "GFRW+PH3",
    "address_2": "Lim贸n Province, Roxana",
    "website": "buddacafe.com",
    "rating": 4.2,
    "reviews_count": 413,
    "thumbnail": "https://lh5.googleusercontent.com/p/AF1QipO-4HZueAnYdkKKO3L-cQIurMelZqNOhb0CrBa_",
    "latitude": 10.5417726,
    "longitude": -83.5035684,
    "type": "Italian restaurant"
  },
  {
    "name": "Bar Y Restaurante Las Tilapias",
    "address_1": "4G65+39H",
    "address_2": "Lim贸n, Siquirres",
    "website": "",
    "rating": 4.4,
    "reviews_count": 330,
    "thumbnail": "https://lh5.googleusercontent.com/p/AF1QipMV3OacQA7k6EKIdS5ceVpyPOwZ_JZTwnNbSIlr",
    "latitude": 10.1101924,
    "longitude": -83.4915135,
    "type": "Restaurant"
  },
  {
    "name": "Restaurante Bamb煤",
    "address_1": "Lim贸n",
    "address_2": "Mercedes",
    "website": "caribbeanbambu.com",
    "rating": 4.4,
    "reviews_count": 315,
    "thumbnail": "https://lh5.googleusercontent.com/p/AF1QipMPdv3clwC_hs2jvPBjJHlw98qxQO1XXVwPGbpn",
    "latitude": 10.1734474,
    "longitude": -83.6113754,
    "type": "Restaurant"
  },
  {
    "name": "restaurante vega 2",
    "address_1": "9789+C5X",
    "address_2": "Lim贸n, Los Lagos",
    "website": "",
    "rating": 4.2,
    "reviews_count": 73,
    "thumbnail": "https://lh5.googleusercontent.com/p/AF1QipMq5K6rZBjLjc5-GdEHhBDowbovvXHfw8FZGFv4",
    "latitude": 10.3661129,
    "longitude": -83.7320041,
    "type": "Restaurant"
  },
  {
    "name": "Pollo Granjero Cariari, Pococ铆",
    "address_1": "9768+QGG",
    "address_2": 247,
    "website": "",
    "rating": 4.6,
    "reviews_count": 5,
    "thumbnail": "https://lh5.googleusercontent.com/p/AF1QipNQoop3WNvq4VMMcpPERpkta1H3aSUcnilQAlsE",
    "latitude": 10.3619364,
    "longitude": -83.7336677,
    "type": "Chicken shop"
  },
  {
    "name": "Caf茅 Nativos",
    "address_1": "Lim贸n, Gu谩cimo",
    "address_2": "Costa Rica",
    "website": "",
    "rating": 4.7,
    "reviews_count": 18,
    "thumbnail": "https://lh5.googleusercontent.com/p/AF1QipPsOKaViBHGC7ad7Esa7K_hvK1XIZob0-u0vIo5",
    "latitude": 10.1207368,
    "longitude": -83.6495828,
    "type": "Fast food restaurant"
  },
  {
    "name": "Taylor's Place Tortuguero Costa Rica",
    "address_1": "Lim贸n Province, Pococ铆",
    "address_2": 70206,
    "website": "facebook.com",
    "rating": 4.7,
    "reviews_count": 74,
    "thumbnail": "https://lh5.googleusercontent.com/p/AF1QipOgpOYZVE94anOB5z6Waz-iENfRPw9ibBNnm3lK",
    "latitude": 10.539582,
    "longitude": -83.5027635,
    "type": "Restaurant"
  },
  {
    "name": "Herradura Bar y Restaurante",
    "address_1": "35 metros Sur de Cementerio de Campo Cinco Lim贸n",
    "address_2": "Pococ铆",
    "website": "",
    "rating": 4.6,
    "reviews_count": 23,
    "thumbnail": "https://lh5.googleusercontent.com/p/AF1QipP6y1w7vjNVz2UAEjJM4LXxTz2naPOZTln1Fwhg",
    "latitude": 10.3824468,
    "longitude": -83.7214258,
    "type": "Restaurant"
  },
  {
    "name": "Charlie's Pizza Guacimo",
    "address_1": "686C+XQV",
    "address_2": "Lim贸n Province, Guacimo",
    "website": "",
    "rating": 4.1,
    "reviews_count": 18,
    "thumbnail": "https://lh5.googleusercontent.com/p/AF1QipN550XcRATkaLUngHlFC5b8JoqClbm5_dfFKQ93",
    "latitude": 10.2124793,
    "longitude": -83.6780816,
    "type": "Restaurant"
  },
  {
    "name": "Soda D'Leite",
    "address_1": "70205 Lim贸n Tortuguero",
    "address_2": 70205,
    "website": "soda-dleite.negocio.site",
    "rating": 4.5,
    "reviews_count": 96,
    "thumbnail": "https://lh5.googleusercontent.com/p/AF1QipOyKIGGHfDiILcisU6e0gopUUody4VBD_enLMvv",
    "latitude": 10.5410638,
    "longitude": -83.5034535,
    "type": "Restaurant"
  },
  {
    "name": "Lim贸n y Sal",
    "address_1": "XRH6+FVJ",
    "address_2": "Heredia, San Antonio",
    "website": "facebook.com",
    "rating": 4.5,
    "reviews_count": 239,
    "thumbnail": "https://lh5.googleusercontent.com/p/AF1QipOtksSvzdp-sbLBnpyfeQE7Gzr5zMlf7PsuuTby",
    "latitude": 9.9787163,
    "longitude": -84.1878629,
    "type": "Seafood restaurant"
  },
  {
    "name": "Centro Tur铆stico Perezoso Paradise",
    "address_1": "camino al Tajo La Platanera",
    "address_2": "Lim贸n, Gu谩piles, San Bosco, la Colonia de Gu谩piles, del sal贸n comunal 3 km al oeste",
    "website": "facebook.com",
    "rating": 4.4,
    "reviews_count": 17,
    "thumbnail": "https://lh5.googleusercontent.com/p/AF1QipNkHoQmXXlxaF9x1T8n8r0bxNozR2R2qL2D_eJv",
    "latitude": 10.2949291,
    "longitude": -83.8365538,
    "type": "Restaurant"
  },
  {
    "name": "Donde Dora Comidas R谩pidas",
    "address_1": "Cementerio de Gu谩cimo, 100 mts este y 100mts norte del",
    "address_2": "Lim贸n Province, Guacimo",
    "website": "facebook.com",
    "rating": 4.3,
    "reviews_count": 28,
    "thumbnail": "https://lh5.googleusercontent.com/p/AF1QipMs1EX-lM8-JgZCQ4hEk3aPaTX0_8AW7bZsnGdV",
    "latitude": 10.2202501,
    "longitude": -83.6765892,
    "type": "Restaurant"
  },
  {
    "name": "RESTAURANTE PANTERA",
    "address_1": "800 metros este del r铆o barbilla sentido lim贸n San Jos茅 mano izquierda",
    "address_2": "Lim贸n, Barbilla",
    "website": "",
    "rating": 4.6,
    "reviews_count": 115,
    "thumbnail": "https://lh5.googleusercontent.com/p/AF1QipOBj9OZ9WkGe2qm9xt-X8I3cTS3H4MX2KEedUvI",
    "latitude": 10.0718391,
    "longitude": -83.3693998,
    "type": "Restaurant"
  },
  {
    "name": "Beso de Tres",
    "address_1": "6877+39J",
    "address_2": "Las Mercedes, Gu谩cimo, Lim贸n",
    "website": "",
    "rating": 3,
    "reviews_count": 1,
    "thumbnail": "",
    "latitude": 10.2127102,
    "longitude": -83.6866025,
    "type": "Restaurant"
  },
  {
    "name": "Restaurante Cocori",
    "address_1": "500mts sur de Playa Bonita Lim贸n",
    "address_2": "Lim贸n",
    "website": "facebook.com",
    "rating": 4.4,
    "reviews_count": 105,
    "thumbnail": "https://lh5.googleusercontent.com/p/AF1QipMCgjb_sKJ58TlYXQL87TkKR6ogZvKFXgAQK-hP",
    "latitude": 10.0086521,
    "longitude": -83.0612157,
    "type": "Restaurant"
  },
  {
    "name": "Pizza Cariari M0026O",
    "address_1": "9746+MWV",
    "address_2": "Urba El Llano",
    "website": "",
    "rating": 4.5,
    "reviews_count": 2,
    "thumbnail": "",
    "latitude": 10.3567266,
    "longitude": -83.7377013,
    "type": "Pizza restaurant"
  },
  {
    "name": "Restaurante Big Boy",
    "address_1": "C. Seis",
    "address_2": "Lim贸n, Jim茅nez",
    "website": "",
    "rating": 4.4,
    "reviews_count": 360,
    "thumbnail": "https://lh5.googleusercontent.com/p/AF1QipMoF0KFWZY0mcsvjvi_cESVlFBgPR3MrfYObHII",
    "latitude": 10.262599,
    "longitude": -83.7157033,
    "type": "Family restaurant"
  },
  {
    "name": "Donde Los Titos",
    "address_1": "3FWV+HQ6",
    "address_2": "Estacion de Intercantonal de Buses de",
    "website": "",
    "rating": 4.9,
    "reviews_count": 10,
    "thumbnail": "https://lh5.googleusercontent.com/p/AF1QipPW9eotta3AwnVfQ1Wt1oXZ-D9sziRlNXPkvt_s",
    "latitude": 10.0964107,
    "longitude": -83.5056106,
    "type": "Restaurant"
  },
  {
    "name": "Soda Restaurante El Primo",
    "address_1": "4CMP+PWC",
    "address_2": "La Herediana",
    "website": "",
    "rating": 4.4,
    "reviews_count": 1466,
    "thumbnail": "https://lh5.googleusercontent.com/p/AF1QipM6OSzQwjtnW8d2oTb7Vs8yj-IA5KkkIfPEcFPb",
    "latitude": 10.134312,
    "longitude": -83.562746,
    "type": "Restaurant"
  },
  {
    "name": "Restaurante Apache",
    "address_1": "Ruta 10",
    "address_2": "Lim贸n Province, Siquirres",
    "website": "",
    "rating": 4.4,
    "reviews_count": 181,
    "thumbnail": "https://lh5.googleusercontent.com/p/AF1QipNfo5jcPSc3Pd0jMvNIOrGD2P10KXE84HoTdXFu",
    "latitude": 10.0245849,
    "longitude": -83.5579353,
    "type": "Family restaurant"
  },
  {
    "name": "Restaurante Lidia's Place",
    "address_1": "M64X+C44",
    "address_2": "Lim贸n, Puerto Viejo de Talamanca",
    "website": "",
    "rating": 4.5,
    "reviews_count": 1306,
    "thumbnail": "https://lh5.googleusercontent.com/p/AF1QipPABGWm4r4G4AZ4b2aD_4eQTYVTWhiWavq34Q0g",
    "latitude": 9.6560038,
    "longitude": -82.7521721,
    "type": "Restaurant"
  },
  {
    "name": "El Rinc贸n del Amor",
    "address_1": "Frente a cabinas",
    "address_2": "Lim贸n Province, Cahuita",
    "website": "",
    "rating": 4.7,
    "reviews_count": 611,
    "thumbnail": "https://lh5.googleusercontent.com/p/AF1QipN-4F8_QFjOBrjMEqwWaeOW8x9nJnJuD0p5ympu",
    "latitude": 9.7365823,
    "longitude": -82.8408038,
    "type": "Restaurant"
  },
  {
    "name": "Pollolandia Gu谩cimo",
    "address_1": "Farmacias Total",
    "address_2": "70601 Contiguo a",
    "website": "pollolandia.com",
    "rating": 4,
    "reviews_count": 85,
    "thumbnail": "https://lh5.googleusercontent.com/p/AF1QipMPF0CZKjAV3b2_DnTPXorljv-Y29gsPKB0BVjT",
    "latitude": 10.2107663,
    "longitude": -83.6808206,
    "type": "Chicken restaurant"
  },
  {
    "name": "Bar y restaurante Bananito",
    "address_1": "Germania de Siquirres sobre",
    "address_2": "Ctra. Braulio Carrillo",
    "website": "",
    "rating": 3.3,
    "reviews_count": 3,
    "thumbnail": "",
    "latitude": 10.0987554,
    "longitude": -83.5157361,
    "type": "Restaurant"
  },
  {
    "name": "Tree Coffee House",
    "address_1": "Lim贸n, Pococ铆",
    "address_2": "Costa Rica",
    "website": "l.instagram.com",
    "rating": 4.1,
    "reviews_count": 15,
    "thumbnail": "https://lh5.googleusercontent.com/p/AF1QipN-bzitYEvvMlbBSG_I_wrYJT5VAdc8u4JQRv2a",
    "latitude": 10.5405138,
    "longitude": -83.503564,
    "type": "Family restaurant"
  },
  {
    "name": "Restaurante Kings",
    "address_1": "3FXV+4WX",
    "address_2": "Lim贸n, Siquirres",
    "website": "",
    "rating": 4.1,
    "reviews_count": 215,
    "thumbnail": "https://lh5.googleusercontent.com/p/AF1QipPaSgAEOrpCtEO_muTdZk2GLxSpRjY3XKqsC36G",
    "latitude": 10.0978635,
    "longitude": -83.5051379,
    "type": "Chinese restaurant"
  },
  {
    "name": "Restaurante Punto Verde",
    "address_1": 32,
    "address_2": "Lim贸n, Siquirres",
    "website": "",
    "rating": 4.3,
    "reviews_count": 67,
    "thumbnail": "https://lh5.googleusercontent.com/p/AF1QipNYpsoFyj8UF_FdSVImTi6KycC6E_90pG9a7da3",
    "latitude": 10.0925731,
    "longitude": -83.5056813,
    "type": "Restaurant"
  },
  {
    "name": "Caribbean Dish",
    "address_1": "3FXP+2GG",
    "address_2": "Ruta Nacional Primaria 32",
    "website": "",
    "rating": 3.9,
    "reviews_count": 406,
    "thumbnail": "https://lh5.googleusercontent.com/p/AF1QipNqiVSIEL60vSpJOJhHXToDUjS8c4K7Y_GWpkL-",
    "latitude": 10.0975607,
    "longitude": -83.5136686,
    "type": "Restaurant"
  },
  {
    "name": "Restaurante Sabroso",
    "address_1": "XVWJ+M47",
    "address_2": "Lim贸n barrio, Heredia",
    "website": "",
    "rating": 4.3,
    "reviews_count": 178,
    "thumbnail": "https://lh5.googleusercontent.com/p/AF1QipPyEOuNpW6DJWXut1Hi0LYw2t2_gViZ9v2GiEaP",
    "latitude": 9.996658,
    "longitude": -84.1197059,
    "type": "Restaurant"
  },
  {
    "name": "Restaurante Tai Pen",
    "address_1": "6755+PFM",
    "address_2": "Unnamed Road",
    "website": "",
    "rating": 4.3,
    "reviews_count": 54,
    "thumbnail": "https://lh5.googleusercontent.com/p/AF1QipMyu9nSl9Glc2CibmxkD-UX55rUg6GnG7gsGi0t",
    "latitude": 10.2093346,
    "longitude": -83.7413254,
    "type": "Restaurant"
  },
  {
    "name": "Pizza Ranch Cariari",
    "address_1": "9746+F7C",
    "address_2": "247, Lim贸n Province, Pococ铆, Costa Rica Frente al Hotel vista al Tortuguero Lim贸n Pococ铆",
    "website": "pizzaranchcr.com",
    "rating": 4.3,
    "reviews_count": 52,
    "thumbnail": "https://lh5.googleusercontent.com/p/AF1QipM8jJBow_YYppbGhDcOl_3YGk4y1EcPNEddU5xG",
    "latitude": 10.3563966,
    "longitude": -83.7370834,
    "type": "Pizza restaurant"
  },
  {
    "name": "Restaurante Mei Tou",
    "address_1": "200 Oeste y 50 Norte",
    "address_2": "Del Parque de los Angeles, C. 10",
    "website": "",
    "rating": 4.3,
    "reviews_count": 161,
    "thumbnail": "https://lh5.googleusercontent.com/p/AF1QipPitguChNUILOCstFT1ZfZwUSQ09l9X6k0ZxpFq",
    "latitude": 9.9962302,
    "longitude": -84.1211458,
    "type": "Chinese restaurant"
  },
  {
    "name": "Bar y Restaurante Martel",
    "address_1": "3FXV+XXM",
    "address_2": "Barrio La Amelia, Lim贸n, Siquirres",
    "website": "",
    "rating": 4.1,
    "reviews_count": 577,
    "thumbnail": "https://lh5.googleusercontent.com/p/AF1QipMFAT37YX9IP_55MLHK4-kvcT4skTER2gbiLe0j",
    "latitude": 10.0999561,
    "longitude": -83.5050754,
    "type": "Bar 0026 grill"
  },
  {
    "name": "Soda Lima",
    "address_1": "C. 2",
    "address_2": "Dolorosa, San Jos茅 Province, San Jos茅",
    "website": "facebook.com",
    "rating": 4.3,
    "reviews_count": 145,
    "thumbnail": "https://lh5.googleusercontent.com/p/AF1QipPv7Kduwp97NcYRg4pgA_eVS0SmAhXuleg9DE84",
    "latitude": 9.9308474,
    "longitude": -84.0803292,
    "type": "Peruvian restaurant"
  },
  {
    "name": "Restaurante onde Frank",
    "address_1": "Del Parque de los Angeles 200 Oeste y 50 Norte",
    "address_2": "C. 10",
    "website": "",
    "rating": 3.8,
    "reviews_count": 8,
    "thumbnail": "https://lh5.googleusercontent.com/p/AF1QipPO4LN5K8qnRwH9HkOH-dhKr9xLSql1Zq616xqq",
    "latitude": 9.9962302,
    "longitude": -84.1211458,
    "type": "Chinese takeaway"
  },
  {
    "name": "Restaurante Providencia",
    "address_1": "6745+538",
    "address_2": "Lim贸n, Jim茅nez",
    "website": "",
    "rating": 4.4,
    "reviews_count": 74,
    "thumbnail": "https://lh5.googleusercontent.com/p/AF1QipPjvb6YibHAGKGhqZSZOTi1vJq_3U4irVJ6Luvo",
    "latitude": 10.2054147,
    "longitude": -83.7422987,
    "type": "Restaurant"
  },
  {
    "name": "RITOS PIZZA CARIARI (caribe)",
    "address_1": "70205 Limon Cariari",
    "address_2": 70205,
    "website": "",
    "rating": 5,
    "reviews_count": 1,
    "thumbnail": "https://lh5.googleusercontent.com/p/AF1QipOSs8yUt5n6NT9_f-CJkHyMJXHEaF6vTEYkYoyd",
    "latitude": 10.3658963,
    "longitude": -83.7315574,
    "type": "Pizza restaurant"
  },
  {
    "name": "Restaurante Pizzeria Cahuita",
    "address_1": "next police station; 50 metros oeste de la policia de",
    "address_2": "Lim贸n Province, Cahuita",
    "website": "",
    "rating": 4.6,
    "reviews_count": 625,
    "thumbnail": "https://lh5.googleusercontent.com/p/AF1QipMGr3DjtQhrdEcLQXlJKojrYNqAaFPPqD4JigJy",
    "latitude": 9.7402621,
    "longitude": -82.8421849,
    "type": "Italian restaurant"
  },
  {
    "name": "Aji Lim贸n - Momentum Lindora",
    "address_1": "XR33+8V8",
    "address_2": "Bosques de Lindora, San Jos茅, Pozos",
    "website": "facebook.com",
    "rating": 4.1,
    "reviews_count": 32,
    "thumbnail": "https://lh5.googleusercontent.com/p/AF1QipPi1NuCSmpyc_KXNYQZRRZeQ2DU56IPeEpG97MS",
    "latitude": 9.9532884,
    "longitude": -84.1952827,
    "type": "Restaurant"
  },
  {
    "name": "Restaurante Lung Fung",
    "address_1": "XVWP+PH7",
    "address_2": "Limon, Heredia",
    "website": "",
    "rating": 4.3,
    "reviews_count": 343,
    "thumbnail": "https://lh5.googleusercontent.com/p/AF1QipMqJ5MdKMr8BbshExcl8n1JsYo35FzOxmKLjqVD",
    "latitude": 9.9967784,
    "longitude": -84.1135936,
    "type": "Chinese restaurant"
  },
  {
    "name": "Aj铆 Lim贸n",
    "address_1": "2Q3R+5WG",
    "address_2": "Radial Francisco J. Orlich",
    "website": "facebook.com",
    "rating": 3.8,
    "reviews_count": 85,
    "thumbnail": "https://lh5.googleusercontent.com/p/AF1QipPoFflFvUqP6-MCUtPq6ckxdxPdBknl4YwDyOWi",
    "latitude": 10.0029381,
    "longitude": -84.207659,
    "type": "Peruvian restaurant"
  },
  {
    "name": "Centro de Pesca La Sirena",
    "address_1": "9673+CG8",
    "address_2": "Unnamed Road, Lim贸n",
    "website": "",
    "rating": 5,
    "reviews_count": 1,
    "thumbnail": "https://lh5.googleusercontent.com/p/AF1QipOIdmk4RNnpIOY-pdTUCmFbgJwqNJuo6iMtpo36",
    "latitude": 10.3635418,
    "longitude": -83.7961657,
    "type": "Restaurant"
  },
  {
    "name": "Bubba.",
    "address_1": "A la par de la Delegaci贸n Lim贸n Cariari",
    "address_2": 70205,
    "website": "facebook.com",
    "rating": 5,
    "reviews_count": 6,
    "thumbnail": "https://lh5.googleusercontent.com/p/AF1QipPi4NvcRfJiwBu3YLoOm5se37IsG8i9GBDdB_eh",
    "latitude": 10.3615989,
    "longitude": -83.7339085,
    "type": "Restaurant"
  },
  {
    "name": "Donde Richard",
    "address_1": "200m Nor-Oeste del muelle principal, a mano derecha Pococ铆, Colorado, Tortuguero Lim贸n CR 70206",
    "address_2": "Lim贸n",
    "website": "donde-richard.negocio.site",
    "rating": 4.6,
    "reviews_count": 167,
    "thumbnail": "https://lh5.googleusercontent.com/p/AF1QipOxQCUCbfjhcHIHpFwZglg2zB6oUFyyHjzyGHk",
    "latitude": 10.5429935,
    "longitude": -83.5036063,
    "type": "Restaurant"
  }
]