[
  {
    "name": "Pequeño Mundo Pococí",
    "address_1": "Guápiles",
    "address_2": "Limón, Pococí",
    "website": "pequenomundo.com",
    "rating": 4.4,
    "reviews_count": 3419,
    "thumbnail": "https://lh5.googleusercontent.com/p/AF1QipNTq4cQ8Tij4BGMkKZm0CHsfnA8u0u_CFGxngGl",
    "latitude": 10.2012462,
    "longitude": -83.7851409,
    "type": "Department store"
  },
  {
    "name": "Pococi exprés",
    "address_1": "Limón, Pococí",
    "address_2": 70205,
    "website": "sumerlabs.com",
    "rating": "",
    "reviews_count": "",
    "thumbnail": "https://lh5.googleusercontent.com/p/AF1QipPsL_nss4C7C-uT7T7eIJcjEPQSuxLaRZ-O0MwB",
    "latitude": 10.4895752,
    "longitude": -83.6194265,
    "type": "Store"
  },
  {
    "name": "Tienda Sol y Luna",
    "address_1": "70201 Ticabán, Barrio La Unión Limón Guápiles",
    "address_2": 70201,
    "website": "",
    "rating": 4.9,
    "reviews_count": 9,
    "thumbnail": "https://lh5.googleusercontent.com/p/AF1QipP_ujBwQ_aOpwpU87JzK-GieTw5A0S6hEEa8zlm",
    "latitude": 10.3977309,
    "longitude": -83.8344574,
    "type": "Clothing store"
  },
  {
    "name": "Tienda Genesis",
    "address_1": "9768+GPW",
    "address_2": "Frente a super la favorita , Limón, Pococí",
    "website": "",
    "rating": "",
    "reviews_count": "",
    "thumbnail": "https://lh5.googleusercontent.com/p/AF1QipNF-Ck2t6qAlvD2rxz3GlkobFfZU3BGb6FgM5FQ",
    "latitude": 10.3613572,
    "longitude": -83.7331873,
    "type": "Clothing store"
  },
  {
    "name": "Importadora el Amigo Guápiles",
    "address_1": "Guápiles Centro en Centro Comercial 2 Ríos, 75mts norte de La Ulatina Limón Guápiles",
    "address_2": 70201,
    "website": "casoma.com",
    "rating": 4.5,
    "reviews_count": 49,
    "thumbnail": "https://lh5.googleusercontent.com/p/AF1QipMqTBoPlhcSCF_wYzAw57vFfDtUSEyshE6YRDU4",
    "latitude": 10.2122058,
    "longitude": -83.7868498,
    "type": "Department store"
  },
  {
    "name": "Piñatica's Fiesta todo personalizado exclusivo para tu fiesta",
    "address_1": "00506 Limón",
    "address_2": "Costa Rica",
    "website": "",
    "rating": 5,
    "reviews_count": 1,
    "thumbnail": "https://lh5.googleusercontent.com/p/AF1QipPaCHjPzeOwl6JWh9i0QbnGtc4mkUu42GHCaZT3",
    "latitude": 10.3402126,
    "longitude": -83.7565359,
    "type": "Party store"
  },
  {
    "name": "Tienda de ropa",
    "address_1": "F72V+PHV",
    "address_2": "Limón, Pococí",
    "website": "",
    "rating": "",
    "reviews_count": "",
    "thumbnail": "",
    "latitude": 10.4518607,
    "longitude": -83.7060889,
    "type": "Clothing store"
  },
  {
    "name": "Tienda Rivera Jeans",
    "address_1": "9779+93V",
    "address_2": 247,
    "website": "",
    "rating": "",
    "reviews_count": "",
    "thumbnail": "",
    "latitude": 10.3634767,
    "longitude": -83.7323163,
    "type": "Clothing store"
  },
  {
    "name": "Sunshine Clothing",
    "address_1": "F9QP+6HP",
    "address_2": "Limón Province, Pococí",
    "website": "",
    "rating": "",
    "reviews_count": "",
    "thumbnail": "https://lh5.googleusercontent.com/p/AF1QipPAnf6vVfu4RGXiyAyXi4yhnsGCLWFrCz3JJszG",
    "latitude": 10.488088,
    "longitude": -83.6135572,
    "type": "Clothing store"
  },
  {
    "name": "Árboles Injertados y Plantasntas Ornamentotales C0026R POCOCÍ",
    "address_1": "247, Limón, Pococí",
    "address_2": "Costa Rica",
    "website": "",
    "rating": 5,
    "reviews_count": 2,
    "thumbnail": "https://lh5.googleusercontent.com/p/AF1QipOdBrGdhO6u-L8H7BkJ9QWfzWyipBHjqEtolka7",
    "latitude": 10.3323488,
    "longitude": -83.7500918,
    "type": "Home goods store"
  },
  {
    "name": "Tieda Anicia",
    "address_1": "Ticabán, Limón Province, Pococí",
    "address_2": "Costa Rica",
    "website": "",
    "rating": 3.9,
    "reviews_count": 29,
    "thumbnail": "https://lh5.googleusercontent.com/p/AF1QipOXsTgLyWplD5AuLhlwHj58mRvh9IoM4xbxHr_R",
    "latitude": 10.3966341,
    "longitude": -83.8351249,
    "type": "Clothing store"
  },
  {
    "name": "Caya Store Sublimación",
    "address_1": "Cariari, Limón",
    "address_2": "Limón, Pococí",
    "website": "",
    "rating": 4.3,
    "reviews_count": 3,
    "thumbnail": "https://lh5.googleusercontent.com/p/AF1QipNFNvdOg34Il8nESWRJlwvV2H_ltedvKZiNeOMY",
    "latitude": 10.365905,
    "longitude": -83.7473409,
    "type": "Clothing store"
  },
  {
    "name": "Granja de Gera",
    "address_1": "Guápiles Pococi Cariari de Pococí 800 norte del Liceo de Cariari Limón Guapiles",
    "address_2": 70205,
    "website": "",
    "rating": "",
    "reviews_count": "",
    "thumbnail": "https://lh5.googleusercontent.com/p/AF1QipP6kSl90X4l4qGiYrhQX0VwogPQYa7reeX-r58",
    "latitude": 10.488088,
    "longitude": -83.6135572,
    "type": "Store"
  },
  {
    "name": "Souvenir Pura Vida",
    "address_1": "Main Street",
    "address_2": "Limón Province",
    "website": "",
    "rating": 5,
    "reviews_count": 5,
    "thumbnail": "https://lh5.googleusercontent.com/p/AF1QipPWuzqpfprsceDy1nWUPsbg0IJueF4aYvxkpJY",
    "latitude": 10.542187,
    "longitude": -83.503613,
    "type": "Souvenir store"
  },
  {
    "name": "Tienda Infantil Paso a Paso",
    "address_1": "50 mts al oeste de Terminal de Buses Cariari Limón Campo Kennedy",
    "address_2": "Costa Rica",
    "website": "",
    "rating": "",
    "reviews_count": "",
    "thumbnail": "",
    "latitude": 10.488088,
    "longitude": -83.6135572,
    "type": "Clothing store"
  },
  {
    "name": "Mini Super Loren",
    "address_1": "Cariari Limón Astua Pirie",
    "address_2": "Costa Rica",
    "website": "",
    "rating": 4.1,
    "reviews_count": 106,
    "thumbnail": "https://lh5.googleusercontent.com/p/AF1QipPHcWi9UnuamJmmsb7BQk0YUtRxH-o5m-GPUqCU",
    "latitude": 10.3407418,
    "longitude": -83.7378331,
    "type": "Supermarket"
  },
  {
    "name": "tienda Famaa",
    "address_1": "6687+7J4",
    "address_2": "C. 7",
    "website": "",
    "rating": 3,
    "reviews_count": 1,
    "thumbnail": "https://lh5.googleusercontent.com/p/AF1QipM6498sTiJDaZwDHrnfmPq9JR3CO9t7EZhiNbmn",
    "latitude": 10.2156476,
    "longitude": -83.7859319,
    "type": "Clothing store"
  },
  {
    "name": "Tienda Orgánica MundoSano Cariari pococí",
    "address_1": "9757+XJC",
    "address_2": "Unnamed Road",
    "website": "",
    "rating": "",
    "reviews_count": "",
    "thumbnail": "https://lh5.googleusercontent.com/p/AF1QipOVPbgW7Jui4yY2ItC8Zyde9a6hjaJh7-cOfT_d",
    "latitude": 10.3599499,
    "longitude": -83.735997,
    "type": "Natural goods store"
  },
  {
    "name": "Tienda Heros",
    "address_1": "6687+CH6",
    "address_2": "Limón, Guápiles",
    "website": "",
    "rating": 5,
    "reviews_count": 1,
    "thumbnail": "https://lh5.googleusercontent.com/p/AF1QipNGpy1NV3RiNxAL7kZZlbIfEHNIv_gF1FAtYLpW",
    "latitude": 10.2160394,
    "longitude": -83.7861136,
    "type": "Boutique"
  },
  {
    "name": "Quality Fashion",
    "address_1": "Guapiles Centro 25 oeste y 50 sur del Gollo Boulevar",
    "address_2": "C. 3",
    "website": "",
    "rating": 4.6,
    "reviews_count": 17,
    "thumbnail": "https://lh5.googleusercontent.com/p/AF1QipME5Gzp2dTXTNZnxNdfb5I0wU7Un5dw7VnCARpo",
    "latitude": 10.2112436,
    "longitude": -83.7891694,
    "type": "Clothing store"
  },
  {
    "name": "Agrícola San Alberto",
    "address_1": "86FF+F44",
    "address_2": "Limón, Pococí",
    "website": "",
    "rating": 4.7,
    "reviews_count": 3,
    "thumbnail": "",
    "latitude": 10.3236363,
    "longitude": -83.7771852,
    "type": "Grocery store"
  },
  {
    "name": "Cokos Store",
    "address_1": "9768+CF7, Frente al Banco Nacional, de cariari",
    "address_2": "Limón, Cariari",
    "website": "",
    "rating": 5,
    "reviews_count": 1,
    "thumbnail": "https://lh5.googleusercontent.com/p/AF1QipNxA_VAO4yaYC_rfkGeSLyh2s-cpWOoFmVuOVUr",
    "latitude": 10.3610318,
    "longitude": -83.7338369,
    "type": "Clothing store"
  },
  {
    "name": "Tienda María José Cariari #1",
    "address_1": "75 m Norte Delegación Policial",
    "address_2": "Limón",
    "website": "facebook.com",
    "rating": "",
    "reviews_count": "",
    "thumbnail": "https://lh5.googleusercontent.com/p/AF1QipOO20Wc7wVgisrxShd4Oi_W8nvjsNVdkAcnMqkV",
    "latitude": 10.3625368,
    "longitude": -83.7336528,
    "type": "Clothing store"
  },
  {
    "name": "Tienda Diamant`S CR",
    "address_1": "",
    "address_2": "",
    "website": "",
    "rating": "",
    "reviews_count": "",
    "thumbnail": "https://lh5.googleusercontent.com/p/AF1QipOCS5OJSsris_9762DD5-OpQ6XTp99QHr6WpdI_",
    "latitude": 10.2096311,
    "longitude": -83.8499528,
    "type": "Clothing store"
  },
  {
    "name": "Caribbean Guápiles",
    "address_1": "interseccion de Calle 5 con Avenida Central",
    "address_2": "Limón, Guápiles",
    "website": "",
    "rating": 4.3,
    "reviews_count": 45,
    "thumbnail": "https://lh5.googleusercontent.com/p/AF1QipPFzFzXHyj99an9nTXtGn4InPe33Dm_t3rewhT0",
    "latitude": 10.212737,
    "longitude": -83.786765,
    "type": "Store"
  },
  {
    "name": "Tienda Infantil Coqueterías",
    "address_1": "6685+7JQ",
    "address_2": "Limón, Guápiles",
    "website": "",
    "rating": 5,
    "reviews_count": 1,
    "thumbnail": "",
    "latitude": 10.2157047,
    "longitude": -83.7908813,
    "type": "Clothing store"
  },
  {
    "name": "Ekono",
    "address_1": "9758+V8R",
    "address_2": "Limón, Roxana",
    "website": "",
    "rating": 4.2,
    "reviews_count": 77,
    "thumbnail": "https://lh5.googleusercontent.com/p/AF1QipOORymbxu6hpn_mgvleCbHKm2g3EhoOmwF9k9Op",
    "latitude": 10.3597487,
    "longitude": -83.7342478,
    "type": "Clothing store"
  },
  {
    "name": "Tienda Isabel",
    "address_1": "Escuela Primaria de Cariari",
    "address_2": "Limón Province, Roxana",
    "website": "",
    "rating": 1,
    "reviews_count": 1,
    "thumbnail": "",
    "latitude": 10.360665,
    "longitude": -83.7341796,
    "type": "Store"
  },
  {
    "name": "Macrobiótica Greenlife",
    "address_1": "Local N°1 Periguápiles Limón Pococí",
    "address_2": 70201,
    "website": "",
    "rating": "",
    "reviews_count": "",
    "thumbnail": "",
    "latitude": 10.2136788,
    "longitude": -83.7890894,
    "type": "Variety store"
  },
  {
    "name": "Concentrados San Antonio",
    "address_1": "70205 Formosa, Cariari, Pococí, Limón Limon Cariari",
    "address_2": 70205,
    "website": "",
    "rating": 5,
    "reviews_count": 2,
    "thumbnail": "https://lh5.googleusercontent.com/p/AF1QipM7dI9EWBQNF-B3k0k0lV0gR_q4fMqKpKAMDT79",
    "latitude": 10.3650233,
    "longitude": -83.7503623,
    "type": "Pet supply store"
  },
  {
    "name": "Tienda Olmareli",
    "address_1": "Costado oeste de la Iglesia Catolica de Guápiles",
    "address_2": "Guápiles",
    "website": "facebook.com",
    "rating": 5,
    "reviews_count": 4,
    "thumbnail": "https://lh5.googleusercontent.com/p/AF1QipNYHHgsOt4mwKR6uflMaSyFzViiCbM5dsTw2yHx",
    "latitude": 10.214404,
    "longitude": -83.789997,
    "type": "Clothing store"
  },
  {
    "name": "Multiservicios Zúñiga",
    "address_1": "San Gerardo de Ticaban, en la Rita de Pococí, de la escuela 400 metros este Limón La Rita",
    "address_2": 70201,
    "website": "negocio.site",
    "rating": "",
    "reviews_count": "",
    "thumbnail": "",
    "latitude": 10.3883774,
    "longitude": -83.8582366,
    "type": "Auto parts store"
  },
  {
    "name": "Almacén el Mejor Precio",
    "address_1": 247,
    "address_2": "Limón, Pococí",
    "website": "",
    "rating": 4.3,
    "reviews_count": 353,
    "thumbnail": "https://lh5.googleusercontent.com/p/AF1QipOM8uL5FjO0SIt91XyFflekVJKFUSV6ltYeYV8k",
    "latitude": 10.363118,
    "longitude": -83.7337244,
    "type": "Tool store"
  },
  {
    "name": "Tienda Infantil Paso A Paso",
    "address_1": "Guápiles, Pococí, Limón Limón",
    "address_2": "Guápiles",
    "website": "pasoapasocr.com",
    "rating": 4.9,
    "reviews_count": 16,
    "thumbnail": "https://lh5.googleusercontent.com/p/AF1QipMiCkL3A2U6k2LPSHuM5BFJ81LeH3JdvpvXhLzu",
    "latitude": 10.2149279,
    "longitude": -83.790657,
    "type": "Children's clothing store"
  },
  {
    "name": "Tienda La Florencia",
    "address_1": "000 Limón 75 Este de Correos de",
    "address_2": "Guápiles",
    "website": "tiendaflorencia.com",
    "rating": 4.4,
    "reviews_count": 16,
    "thumbnail": "https://lh5.googleusercontent.com/p/AF1QipP3kucaikIH2Sl0aasMEnnUwbALh0Yq8YaIV0Bg",
    "latitude": 10.2148653,
    "longitude": -83.7902596,
    "type": "Clothing store"
  },
  {
    "name": "Tienda Cleveland Guapiles",
    "address_1": "6676+87R",
    "address_2": 149,
    "website": "",
    "rating": 3.1,
    "reviews_count": 13,
    "thumbnail": "",
    "latitude": 10.2132125,
    "longitude": -83.789217,
    "type": "Used clothing store"
  },
  {
    "name": "Mini Super Chico",
    "address_1": "97PM+87M",
    "address_2": "Limón Province, Roxana",
    "website": "",
    "rating": 3.9,
    "reviews_count": 76,
    "thumbnail": "https://lh5.googleusercontent.com/p/AF1QipN-J3cEKUnp_sp8b5lFZj81dSk2xUWRQWfq02j8",
    "latitude": 10.3858498,
    "longitude": -83.7168391,
    "type": "Supermarket"
  },
  {
    "name": "Repuestos Tumoto",
    "address_1": "814, Limón Costa Rica",
    "address_2": "Pococí",
    "website": "",
    "rating": 5,
    "reviews_count": 1,
    "thumbnail": "https://lh5.googleusercontent.com/p/AF1QipO57GlLNQm5iepNQGAy3mv5SR5tggGHeX5CQXLf",
    "latitude": 10.4029363,
    "longitude": -83.6933339,
    "type": "Store"
  },
  {
    "name": "Super El Llano",
    "address_1": "9757+48J",
    "address_2": "Unnamed Road, Limón",
    "website": "",
    "rating": 4.5,
    "reviews_count": 4,
    "thumbnail": "https://lh5.googleusercontent.com/p/AF1QipNPsxn91VqXeWWANwFBixoiKqJQ4PqBgOoFBOjL",
    "latitude": 10.3578359,
    "longitude": -83.7367366,
    "type": "Supermarket"
  },
  {
    "name": "Libreria, Pasamanería y Bazar Atlantis",
    "address_1": "Las Palmitas, La Rita, Diagonal a la plaza de deportes Limón Pococí",
    "address_2": 70203,
    "website": "",
    "rating": "",
    "reviews_count": "",
    "thumbnail": "https://lh5.googleusercontent.com/p/AF1QipO156g2Vo1QZ9jrCMPd9E1sFX4IOhmr_3ff4Xyf",
    "latitude": 10.4546177,
    "longitude": -83.7047795,
    "type": "Book store"
  },
  {
    "name": "El Rey Guapiles",
    "address_1": "6668+R75",
    "address_2": "Barrio Pinares, Limón, Guápiles",
    "website": "almaceneselrey.com",
    "rating": 4.4,
    "reviews_count": 1331,
    "thumbnail": "https://lh5.googleusercontent.com/p/AF1QipMXKwQ_bc5n54v5qhk_VV688O6d3aWtivmGqmUV",
    "latitude": 10.2120186,
    "longitude": -83.7842777,
    "type": "Warehouse store"
  },
  {
    "name": "Almacén Hermanos Jimenez",
    "address_1": "9765+GX7",
    "address_2": "Limón Province, Pococí",
    "website": "",
    "rating": 4,
    "reviews_count": 2,
    "thumbnail": "https://lh5.googleusercontent.com/p/AF1QipN-RNp56nSmtcvlFK40Pw9FWXSd-GJgjhhLMm0e",
    "latitude": 10.3612757,
    "longitude": -83.7400826,
    "type": "Hardware store"
  },
  {
    "name": "Frutas y verduras Mendez",
    "address_1": "247, Limón",
    "address_2": "Pococí",
    "website": "",
    "rating": 3.7,
    "reviews_count": 3,
    "thumbnail": "https://lh5.googleusercontent.com/p/AF1QipOybBB6hn6-rH4BguHbg4kkQjdxlAKeeRfY6TtJ",
    "latitude": 10.3862135,
    "longitude": -83.7169227,
    "type": "Grocery store"
  },
  {
    "name": "Tiendas Sinaí",
    "address_1": "6685+7VG",
    "address_2": "Limón, Guápiles",
    "website": "",
    "rating": 4,
    "reviews_count": 30,
    "thumbnail": "https://lh5.googleusercontent.com/p/AF1QipMbwRF-6g4MwBKiI4Jbf9FYLZA4Zem4Xit42kSZ",
    "latitude": 10.2156825,
    "longitude": -83.7902892,
    "type": "Clothing store"
  },
  {
    "name": "Renovación Guapiles",
    "address_1": "6677+4JH",
    "address_2": "Blvr. de Guápiles",
    "website": "",
    "rating": 4.4,
    "reviews_count": 10,
    "thumbnail": "https://lh5.googleusercontent.com/p/AF1QipMAZPATit4_H9HB-oqIqFA0Ec2tVnpFBdhVFuNJ",
    "latitude": 10.2128032,
    "longitude": -83.7858867,
    "type": "Clothing store"
  },
  {
    "name": "Brisa Fresca Abarrotes frutas y verduras",
    "address_1": "87M4+RR4",
    "address_2": "Limón Province, Pococí",
    "website": "",
    "rating": "",
    "reviews_count": "",
    "thumbnail": "https://lh5.googleusercontent.com/p/AF1QipMive2bsNoEbxoTbX3XGAQl6g6MHsv_6nBIUCnj",
    "latitude": 10.3345211,
    "longitude": -83.7429314,
    "type": "Grocery store"
  },
  {
    "name": "La Macrofit Tienda Orgánica",
    "address_1": 149,
    "address_2": "Limón, Guápiles",
    "website": "instagram.com",
    "rating": 3,
    "reviews_count": 2,
    "thumbnail": "https://lh5.googleusercontent.com/p/AF1QipPIT9T7lbjWvZXFEnBNKmsEKGgSFJwzHPhfix6P",
    "latitude": 10.211619,
    "longitude": -83.7888795,
    "type": "Natural goods store"
  },
  {
    "name": "Super Maná",
    "address_1": "70203 Limon Jardín",
    "address_2": 70203,
    "website": "",
    "rating": 5,
    "reviews_count": 1,
    "thumbnail": "https://lh5.googleusercontent.com/p/AF1QipPf61TzZfQ46jkB6ogohtiCpJUaXvcKnoSd1kzs",
    "latitude": 10.3947648,
    "longitude": -83.77851,
    "type": "Supermarket"
  },
  {
    "name": "Super y licorera La Expo Pococí",
    "address_1": "7021 Continuo al hotel suerre",
    "address_2": "Limón, Guápiles",
    "website": "",
    "rating": 4.9,
    "reviews_count": 7,
    "thumbnail": "https://lh5.googleusercontent.com/p/AF1QipO2gY1KyDfUU6GG7uqxKCdsDcRZydjjUr7B6bt_",
    "latitude": 10.2196561,
    "longitude": -83.780645,
    "type": "Supermarket"
  },
  {
    "name": "Abastecedor La Primavera",
    "address_1": "100 metros norte salón comunal La primavera Limón Pococi, Primavera",
    "address_2": 70203,
    "website": "",
    "rating": 3,
    "reviews_count": 1,
    "thumbnail": "",
    "latitude": 10.4290782,
    "longitude": -83.7816499,
    "type": "Supermarket"
  },
  {
    "name": "TIENDA METROKILOS CARIARI",
    "address_1": "Limón, Pococí",
    "address_2": "Costa Rica",
    "website": "",
    "rating": 5,
    "reviews_count": 1,
    "thumbnail": "https://lh5.googleusercontent.com/p/AF1QipMUbTAccyWwe8vwNvxJArrEIFu88hSvlcWT5LmS",
    "latitude": 10.3606798,
    "longitude": -83.733348,
    "type": "Fabric store"
  },
  {
    "name": "Agata Boutique Guápiles",
    "address_1": "Frente a Zapatería Best Brands Limón Guápiles",
    "address_2": 70201,
    "website": "facebook.com",
    "rating": 5,
    "reviews_count": 2,
    "thumbnail": "https://lh5.googleusercontent.com/p/AF1QipNxMBVQRCJag28dyMji0LxQV4oPXyUx9nR3LCA5",
    "latitude": 10.2147229,
    "longitude": -83.7902047,
    "type": "Boutique"
  },
  {
    "name": "Concentrados Mega",
    "address_1": "Palmitas frente a la plaza de deportes, Concentrados Mega Limón Cariari",
    "address_2": 70205,
    "website": "concentrados-mega.negocio.site",
    "rating": 4.2,
    "reviews_count": 5,
    "thumbnail": "https://lh5.googleusercontent.com/p/AF1QipMrsOzGRGg0T-0fxYs12Ks-veYOUEICAbVK0-DV",
    "latitude": 10.4543407,
    "longitude": -83.7042532,
    "type": "Animal feed store"
  },
  {
    "name": "Gollo Cariari Norte",
    "address_1": "9778+279",
    "address_2": 247,
    "website": "",
    "rating": "",
    "reviews_count": "",
    "thumbnail": "https://lh5.googleusercontent.com/p/AF1QipP28TqYahZoyxyXJyHpgT14OD5p4nGQH6IR4FZj",
    "latitude": 10.3625316,
    "longitude": -83.7342642,
    "type": "Appliance store"
  },
  {
    "name": "Ferreteria El Rotulo",
    "address_1": "75 Este Bar El Almendro",
    "address_2": 249,
    "website": "",
    "rating": 3.1,
    "reviews_count": 13,
    "thumbnail": "https://lh5.googleusercontent.com/p/AF1QipOBFHmEKuOH10tYr8GYWI2USGEWU5qyTVK52hCt",
    "latitude": 10.4096506,
    "longitude": -83.757298,
    "type": "Hardware store"
  },
  {
    "name": "Super La Central",
    "address_1": "247, Limón, Pococí",
    "address_2": "Costa Rica",
    "website": "facebook.com",
    "rating": 4.4,
    "reviews_count": 57,
    "thumbnail": "https://lh5.googleusercontent.com/p/AF1QipMoEOy_Cd3mEqG2nL9Hpu2CQpbl-ybEZ1AG5g8U",
    "latitude": 10.4540596,
    "longitude": -83.705051,
    "type": "Supermarket"
  },
  {
    "name": "Sublimación 0026 bordado oasis",
    "address_1": "de",
    "address_2": "Barrio Pueblo Nuevo",
    "website": "facebook.com",
    "rating": 5,
    "reviews_count": 2,
    "thumbnail": "https://lh5.googleusercontent.com/p/AF1QipMiQQmT2CfnICWxRJ5lUu4xdIAHhfT-4GGzzomO",
    "latitude": 10.3342369,
    "longitude": -83.7455434,
    "type": "Custom t-shirt store"
  },
  {
    "name": "Decavisa Pococí",
    "address_1": "Blvr. de Guápiles",
    "address_2": "Limón, Guápiles",
    "website": "decavisa.com",
    "rating": 4.1,
    "reviews_count": 574,
    "thumbnail": "https://lh5.googleusercontent.com/p/AF1QipN0FlGZAWr3RqHeSU2qbZ90vciVt2KIf0RkhamP",
    "latitude": 10.2127393,
    "longitude": -83.7851903,
    "type": "Home goods store"
  },
  {
    "name": "Tienda Aladino | El sultan",
    "address_1": "Limón Pococí Cariari",
    "address_2": 70205,
    "website": "aladino-cr.com",
    "rating": "",
    "reviews_count": "",
    "thumbnail": "https://lh5.googleusercontent.com/p/AF1QipO0gR2hYiTfKxCMkmBM4cgPZvrwGFooOQUEPyxP",
    "latitude": 10.3620123,
    "longitude": -83.7338522,
    "type": "Youth clothing store"
  },
  {
    "name": "Supermercado y Distribuidora Aragon",
    "address_1": "70205 Limon Pococi",
    "address_2": 70205,
    "website": "",
    "rating": "",
    "reviews_count": "",
    "thumbnail": "",
    "latitude": 10.4230878,
    "longitude": -83.7199136,
    "type": "Supermarket"
  },
  {
    "name": "Importadora Monge Cariari",
    "address_1": 247,
    "address_2": "Limón, Pococí",
    "website": "tiendamonge.com",
    "rating": 5,
    "reviews_count": 1,
    "thumbnail": "https://lh5.googleusercontent.com/p/AF1QipNfoi7i0tfD4gKmXt39i6C-S-IEL6g0wUVlVKmx",
    "latitude": 10.3594453,
    "longitude": -83.7340945,
    "type": "Appliance store"
  },
  {
    "name": "Tienda María José Cariari #3",
    "address_1": "100 m Norte Delegación Policial, Pococí",
    "address_2": "Limón",
    "website": "facebook.com",
    "rating": "",
    "reviews_count": "",
    "thumbnail": "https://lh5.googleusercontent.com/p/AF1QipOLZPIcpB1AP1-bFymFa3dZzU0RbYmtuomkJQn4",
    "latitude": 10.362652,
    "longitude": -83.7337948,
    "type": "Clothing store"
  },
  {
    "name": "Verduleria hns Fernández",
    "address_1": "100 mrrs este delegacion fuerza publica Limon",
    "address_2": "Costa Rica",
    "website": "",
    "rating": "",
    "reviews_count": "",
    "thumbnail": "",
    "latitude": 10.3607994,
    "longitude": -83.7325859,
    "type": "Fruit and vegetable store"
  },
  {
    "name": "Fin Del Mundo Store",
    "address_1": "6668+Q57",
    "address_2": "Barrio Pinares, Limón, Guápiles",
    "website": "",
    "rating": 3.5,
    "reviews_count": 2,
    "thumbnail": "",
    "latitude": 10.2119045,
    "longitude": -83.784569,
    "type": "Toy store"
  },
  {
    "name": "Gollo Cariari Centro",
    "address_1": "50 Norte de la fuerza publica",
    "address_2": "Limón",
    "website": "gollotienda.com",
    "rating": 1,
    "reviews_count": 1,
    "thumbnail": "https://lh5.googleusercontent.com/p/AF1QipOOZgkHS22MMdm8pD-27aUp6xdFp7pcmPir6kJ0",
    "latitude": 10.3599463,
    "longitude": -83.7336932,
    "type": "Appliance store"
  },
  {
    "name": "Quesos Pococi",
    "address_1": 149,
    "address_2": "Limón, Guápiles",
    "website": "",
    "rating": 1,
    "reviews_count": 1,
    "thumbnail": "https://lh5.googleusercontent.com/p/AF1QipPm8QPKenLizB3Dtt2k6jjsg4WsaLX76cJyddID",
    "latitude": 10.212899,
    "longitude": -83.7892733,
    "type": "Cheese shop"
  },
  {
    "name": "Emotion Guápiles",
    "address_1": "Frente Universidad Latina, Limón Guápiles, Pococí, Limón Limón Guapiles",
    "address_2": 70201,
    "website": "",
    "rating": 4.3,
    "reviews_count": 38,
    "thumbnail": "https://lh5.googleusercontent.com/p/AF1QipNT0padyooOtYeHBGdBgFAbjy3QXVn7Vl8oMkz-",
    "latitude": 10.2108615,
    "longitude": -83.7874098,
    "type": "Tire shop"
  },
  {
    "name": "Cumbre Sport - Tienda De Productos Deportivos Y Aventura",
    "address_1": "C. 6",
    "address_2": "Limón Province, Guapiles",
    "website": "cumbresport.com",
    "rating": 5,
    "reviews_count": 1,
    "thumbnail": "https://lh5.googleusercontent.com/p/AF1QipOWoDxtDQJwwZ7m67S51Sxr2NAiu2aM1MhWWGuj",
    "latitude": 10.2146139,
    "longitude": -83.7930013,
    "type": "Sports nutrition store"
  },
  {
    "name": "SUPER GKM",
    "address_1": "Ticabán finca , frente plaza de deportes Limón Pococí",
    "address_2": 70203,
    "website": "",
    "rating": 4.4,
    "reviews_count": 78,
    "thumbnail": "https://lh5.googleusercontent.com/p/AF1QipOCCbVoV-_e-ORCZZwHVbXrxfMGOipFcuvSIuuv",
    "latitude": 10.4034056,
    "longitude": -83.8316044,
    "type": "Supermarket"
  },
  {
    "name": "Tienda TOLKIEN Hobby Store.",
    "address_1": "6676+H89",
    "address_2": "Av. Central",
    "website": "facebook.com",
    "rating": 3.8,
    "reviews_count": 17,
    "thumbnail": "https://lh5.googleusercontent.com/p/AF1QipNFl2M0ir_qH0gCPGree5WlFdvMYinNFmtgt7Cz",
    "latitude": 10.2139229,
    "longitude": -83.7891425,
    "type": "Video game store"
  },
  {
    "name": "Gollo Cariari Sur",
    "address_1": "Costado este del servicentro uno en",
    "address_2": "Limón",
    "website": "gollotienda.com",
    "rating": 4.3,
    "reviews_count": 83,
    "thumbnail": "https://lh5.googleusercontent.com/p/AF1QipOxaw_P_pFH7pCkEJ_4dy21V0jnlEa1uHAa-BU-",
    "latitude": 10.3583993,
    "longitude": -83.7347002,
    "type": "Appliance store"
  },
  {
    "name": "Mas X Menos Guápiles",
    "address_1": 149,
    "address_2": "Limón, Guápiles",
    "website": "masxmenos.cr",
    "rating": 4.3,
    "reviews_count": 1397,
    "thumbnail": "https://lh5.googleusercontent.com/p/AF1QipPzWtZI8X4_ykaLtu_-F7UpzVzpB8eVaMTAS4LR",
    "latitude": 10.213435,
    "longitude": -83.7845955,
    "type": "Supermarket"
  },
  {
    "name": "Finca Integral Génesis",
    "address_1": "F57X+622",
    "address_2": "Limón, Pococí",
    "website": "",
    "rating": 4.5,
    "reviews_count": 6,
    "thumbnail": "https://lh5.googleusercontent.com/p/AF1QipM9ixm7Jl_XQhxRvmORPLe49HWFp8XrtzwKqr2o",
    "latitude": 10.4630169,
    "longitude": -83.8024864,
    "type": "Farm shop"
  },
  {
    "name": "motos freedom",
    "address_1": "6649+R9G",
    "address_2": "Limón Province, Guapiles",
    "website": "",
    "rating": 3.9,
    "reviews_count": 16,
    "thumbnail": "",
    "latitude": 10.2070746,
    "longitude": -83.7815505,
    "type": "Supermarket"
  },
  {
    "name": "Jenny's Bakery",
    "address_1": "Limón Province, Pococí",
    "address_2": 70201,
    "website": "",
    "rating": 2,
    "reviews_count": 2,
    "thumbnail": "https://lh5.googleusercontent.com/p/AF1QipPFBXwgshZ0ZKYxv3tdkcjKFRh3aVBepFqAZYDs",
    "latitude": 10.3475195,
    "longitude": -83.8049096,
    "type": "Bakery"
  },
  {
    "name": "AutoRepuestos Willy #1",
    "address_1": "247 Limón",
    "address_2": "Limón, Pococí",
    "website": "",
    "rating": 4.7,
    "reviews_count": 3,
    "thumbnail": "https://lh5.googleusercontent.com/p/AF1QipMjCJeahs_zrXo4YocqflQa7IJKlG5L47iISxqo",
    "latitude": 10.3641942,
    "longitude": -83.732624,
    "type": "Auto parts store"
  },
  {
    "name": "KINGS COMPUTERS",
    "address_1": "Avenida 7, 100 metros Oeste del I.N.S",
    "address_2": "Limón, Guápiles",
    "website": "kc.cr",
    "rating": 4.3,
    "reviews_count": 253,
    "thumbnail": "https://lh5.googleusercontent.com/p/AF1QipPblJUdDFMfqKKs6PfxPQA5VCXZxwNiwInlvhjo",
    "latitude": 10.215397,
    "longitude": -83.78424,
    "type": "Computer store"
  },
  {
    "name": "Tienda cleveland cariari",
    "address_1": "9768+68J, Escuela Primaria de Cariari",
    "address_2": "Limón, Pococí",
    "website": "",
    "rating": "",
    "reviews_count": "",
    "thumbnail": "https://lh5.googleusercontent.com/p/AF1QipP9RMSsCehrUtiIZXmnlHLQjSH1gv3pY4ogdjo",
    "latitude": 10.3605517,
    "longitude": -83.7342296,
    "type": "General store"
  },
  {
    "name": "Tienda Sueños Infantiles",
    "address_1": "Guápiles centro, ubicados en la esquina noreste de la iglesia Católica Limón Guápiles",
    "address_2": 70201,
    "website": "",
    "rating": "",
    "reviews_count": "",
    "thumbnail": "",
    "latitude": 10.2147011,
    "longitude": -83.7899467,
    "type": "Clothing store"
  },
  {
    "name": "Fishing Tackle 506 Mar y Rio",
    "address_1": "Calle Estándar 249",
    "address_2": "Limón Province, Guapiles",
    "website": "",
    "rating": 5,
    "reviews_count": 1,
    "thumbnail": "https://lh5.googleusercontent.com/p/AF1QipOQYXW4gbceJQlIeIvLirp6-K6bqn2ZctnwJlTw",
    "latitude": 10.2405201,
    "longitude": -83.7950753,
    "type": "Fishing store"
  },
  {
    "name": "Materiales Las Brisas",
    "address_1": "599V+J72",
    "address_2": "Pocora Sur, Limón Province, Pocora",
    "website": "",
    "rating": 3.6,
    "reviews_count": 25,
    "thumbnail": "https://lh5.googleusercontent.com/p/AF1QipPec0CjZ--LKGi0sKP0EYu1kNPd5Q0ZHKGhJdf2",
    "latitude": 10.169004,
    "longitude": -83.6068584,
    "type": "Hardware store"
  },
  {
    "name": "Satellite",
    "address_1": "Av. 7",
    "address_2": "Barrio Belén, Limón Province, Guapiles",
    "website": "satellitecr.com",
    "rating": 4.8,
    "reviews_count": 195,
    "thumbnail": "https://lh5.googleusercontent.com/p/AF1QipM6g12cELZnUEMCvvN9p0Id7hj2NUnWC1F1gnZV",
    "latitude": 10.2153684,
    "longitude": -83.7849395,
    "type": "Computer store"
  },
  {
    "name": "El Mercadito de Cariari",
    "address_1": "1 km al norte del Banco Nacional contigo a complejo caraluna Limón",
    "address_2": "Pococí",
    "website": "facebook.com",
    "rating": 4.1,
    "reviews_count": 178,
    "thumbnail": "https://lh5.googleusercontent.com/p/AF1QipPlBlNvjTx482GLoc5KH61MdeZDHujZuhZugjLd",
    "latitude": 10.3671798,
    "longitude": -83.7313385,
    "type": "Supermarket"
  },
  {
    "name": "Tiendita el Mexicano en Costa Rica",
    "address_1": "Barrio la Riviera lote D3 Limón Cariari",
    "address_2": 70205,
    "website": "m.facebook.com",
    "rating": "",
    "reviews_count": "",
    "thumbnail": "https://lh5.googleusercontent.com/p/AF1QipM6jNe1NwrgLl71MNSf3v5I-ibPqKNCs0rzr_kl",
    "latitude": 10.3525438,
    "longitude": -83.7165966,
    "type": "Ice cream shop"
  },
  {
    "name": "Verdulería Ramiréz",
    "address_1": "249, la rita Limón",
    "address_2": "Pococí",
    "website": "",
    "rating": 4.8,
    "reviews_count": 10,
    "thumbnail": "https://lh5.googleusercontent.com/p/AF1QipO5gU5opRlF2RXgeF9E8wMCn3HNKZRAfGJPfFek",
    "latitude": 10.3937076,
    "longitude": -83.8022312,
    "type": "Greengrocer"
  },
  {
    "name": "Licorera castillo",
    "address_1": "Limón, Pococí",
    "address_2": "Costa Rica",
    "website": "",
    "rating": 4.9,
    "reviews_count": 9,
    "thumbnail": "https://lh5.googleusercontent.com/p/AF1QipPNSvfoPdSdyfwTVci_Xh-5Boka7YY09fCyPq6q",
    "latitude": 10.3634561,
    "longitude": -83.7334594,
    "type": "State liquor store"
  },
  {
    "name": "Repuestos y Cabezales S.A. (Grupo Colono Automotriz)",
    "address_1": "300 Metros Oeste del Servicentro Santa Clara Sobre",
    "address_2": "Ctra. Braulio Carrillo",
    "website": "",
    "rating": 4.5,
    "reviews_count": 80,
    "thumbnail": "https://lh5.googleusercontent.com/p/AF1QipPv5ewSIslzInnZepVUgtHYSSB0A93pY3ysN4zi",
    "latitude": 10.2028597,
    "longitude": -83.7861172,
    "type": "Store"
  },
  {
    "name": "Super Intima Guapiles #2",
    "address_1": "Frente al Ministerio de Salud de Guápiles Limón Pococí",
    "address_2": 70201,
    "website": "",
    "rating": 5,
    "reviews_count": 1,
    "thumbnail": "",
    "latitude": 10.2152864,
    "longitude": -83.7898941,
    "type": "Underwear store"
  },
  {
    "name": "CENTRO DE CARNES GETSEMANI",
    "address_1": "6665+7X7",
    "address_2": "Limón Province, Guapiles",
    "website": "",
    "rating": 5,
    "reviews_count": 1,
    "thumbnail": "",
    "latitude": 10.2106536,
    "longitude": -83.7900791,
    "type": "Grocery store"
  },
  {
    "name": "Palí La Rita",
    "address_1": "247, Limón, Pococí",
    "address_2": "Costa Rica",
    "website": "",
    "rating": 4.1,
    "reviews_count": 275,
    "thumbnail": "https://lh5.googleusercontent.com/p/AF1QipM4ev9NMLTNwcyDjbBpiGfZg2uocZzkdXjNoU09",
    "latitude": 10.2705419,
    "longitude": -83.775022,
    "type": "Supermarket"
  },
  {
    "name": "Colono Construcción Ticabán",
    "address_1": "Ticabán, La Rita, contiguo a pista de aterrizaje Limón Ticabán",
    "address_2": 70203,
    "website": "colonoconstruccion.com",
    "rating": 3.9,
    "reviews_count": 57,
    "thumbnail": "https://lh5.googleusercontent.com/p/AF1QipMZtn_9BUKajk_CClBG0VeRLDgsUxv-_cMCeDQ",
    "latitude": 10.3977982,
    "longitude": -83.8295209,
    "type": "Building materials store"
  },
  {
    "name": "Zapateria Style Guapiles",
    "address_1": "6685+8HG",
    "address_2": "Av. 5",
    "website": "",
    "rating": 4.1,
    "reviews_count": 175,
    "thumbnail": "https://lh5.googleusercontent.com/p/AF1QipOmc75620vQaSVM0DbOcBK9nh1JNcOdyMO5C0f_",
    "latitude": 10.2158157,
    "longitude": -83.7910416,
    "type": "Clothing store"
  },
  {
    "name": "Aeropost",
    "address_1": "50 sur de Discoteca Lux",
    "address_2": "C. 5",
    "website": "aeropost.com",
    "rating": 4.4,
    "reviews_count": 54,
    "thumbnail": "https://lh5.googleusercontent.com/p/AF1QipOrH9b6Kckf9M5BV1fT1Zwz40sRdF4ktBBVJnwU",
    "latitude": 10.2129424,
    "longitude": -83.7867865,
    "type": "Store"
  },
  {
    "name": "Fervasa Cariari",
    "address_1": "9778+HV9",
    "address_2": 247,
    "website": "",
    "rating": 5,
    "reviews_count": 3,
    "thumbnail": "https://lh5.googleusercontent.com/p/AF1QipOyKtlDXhTBPyETg_-4ENdQH-3hyxBLsdx-Ip_w",
    "latitude": 10.3639063,
    "longitude": -83.7327681,
    "type": "Store"
  },
  {
    "name": "Importadora Monge",
    "address_1": "3MM5+M8W",
    "address_2": "Barrio La Zonita, Limón Province, Batán",
    "website": "",
    "rating": 3.4,
    "reviews_count": 58,
    "thumbnail": "https://lh5.googleusercontent.com/p/AF1QipOWP8xZ0lt1Tdy1l1FRqYnqk6Mo6PT6iSfxExYt",
    "latitude": 10.0842314,
    "longitude": -83.3416739,
    "type": "Store"
  },
  {
    "name": "Tienda Na'tica",
    "address_1": "",
    "address_2": "",
    "website": "",
    "rating": "",
    "reviews_count": "",
    "thumbnail": "",
    "latitude": 10.0463249,
    "longitude": -83.3038041,
    "type": "Craft store"
  },
  {
    "name": "Almacén 3R",
    "address_1": "6677+8HX",
    "address_2": "Barrio Belén, Limón, Guápiles",
    "website": "almacen3r.com",
    "rating": 4.4,
    "reviews_count": 721,
    "thumbnail": "https://lh5.googleusercontent.com/p/AF1QipPTOFO8YECG9SbNETh7FyogS8eewzPL1Q-HY0FW",
    "latitude": 10.2133702,
    "longitude": -83.7860191,
    "type": "Hardware store"
  },
  {
    "name": "Joyeria Guillen",
    "address_1": "70205 Limón Pococí",
    "address_2": 70205,
    "website": "",
    "rating": 4.4,
    "reviews_count": 9,
    "thumbnail": "https://lh5.googleusercontent.com/p/AF1QipPTSXZkhsIaXans0pqZH-nGeSBQR2iQVV8Kh1Ht",
    "latitude": 10.3612036,
    "longitude": -83.7336262,
    "type": "Jewelry store"
  },
  {
    "name": "Terminal Guapiles",
    "address_1": "6636+4MH",
    "address_2": "Limón Province, Guapiles",
    "website": "",
    "rating": 3.9,
    "reviews_count": 1951,
    "thumbnail": "https://lh5.googleusercontent.com/p/AF1QipN_OSt-_d30oSTZW3vZuXAgn_TE03_RLnDbljRX",
    "latitude": 10.202813,
    "longitude": -83.7882744,
    "type": "Supermarket"
  },
  {
    "name": "Tienda Mimi, Limon, Batán, Costa Rica",
    "address_1": "librería el farolito",
    "address_2": "100 ft- Limón, Batán, Costa Rica, frente a",
    "website": "",
    "rating": "",
    "reviews_count": "",
    "thumbnail": "https://lh5.googleusercontent.com/p/AF1QipMi3W0Oxbj6YJrEdtnmjaaIstpdFm41l2-1Gp8o",
    "latitude": 10.0852632,
    "longitude": -83.3415127,
    "type": "Clothing store"
  },
  {
    "name": "M Express Cariari",
    "address_1": "70205 Limón Cariari",
    "address_2": 70205,
    "website": "tiendamexpress.com",
    "rating": 4.5,
    "reviews_count": 6,
    "thumbnail": "https://lh5.googleusercontent.com/p/AF1QipOmW_uh9wNGfPRz27Xivk85-gc2vZKP_2koMieO",
    "latitude": 10.3597001,
    "longitude": -83.7345653,
    "type": "Appliance store"
  },
  {
    "name": "Repuestos Panatra",
    "address_1": "6676+678",
    "address_2": "Limón Province, Guapiles",
    "website": "",
    "rating": 4.4,
    "reviews_count": 5,
    "thumbnail": "",
    "latitude": 10.2130354,
    "longitude": -83.789302,
    "type": "Car accessories store"
  },
  {
    "name": "Colono Construcción Cariari El Cruce",
    "address_1": "Entrada al CINDEA, y Palermo Limón Cariari, Pococí",
    "address_2": 70205,
    "website": "colonoconstruccion.com",
    "rating": 4.5,
    "reviews_count": 2,
    "thumbnail": "https://lh5.googleusercontent.com/p/AF1QipM1hH4bDFVjBhb8JJpHDYLa0jZk7oytlr5myhEx",
    "latitude": 10.3686583,
    "longitude": -83.7308687,
    "type": "Tool store"
  },
  {
    "name": "Super San Martin Palmitas.",
    "address_1": 247,
    "address_2": "Limón, Pococí",
    "website": "",
    "rating": 4.2,
    "reviews_count": 78,
    "thumbnail": "https://lh5.googleusercontent.com/p/AF1QipM6e-w-nJuEFHPlnRYOWtRdMxisQxK7auo97SBI",
    "latitude": 10.4531288,
    "longitude": -83.7054425,
    "type": "Supermarket"
  },
  {
    "name": "Ferretería y Deposito Cariari S.A.",
    "address_1": "Limón Province, Pococí",
    "address_2": "Costa Rica",
    "website": "sites.google.com",
    "rating": 4.6,
    "reviews_count": 23,
    "thumbnail": "https://lh5.googleusercontent.com/p/AF1QipNQoVYv42XJ7KdJdaPE0eD4gqYCuUjuuhzXJad9",
    "latitude": 10.3666402,
    "longitude": -83.7314576,
    "type": "Home goods store"
  },
  {
    "name": "SUPER DRAGON CARIARI",
    "address_1": "9778+5H3",
    "address_2": 247,
    "website": "",
    "rating": 4.3,
    "reviews_count": 12,
    "thumbnail": "",
    "latitude": 10.3628756,
    "longitude": -83.73359,
    "type": "Supermarket"
  },
  {
    "name": "Panadería Campo Dos",
    "address_1": "814, Limón",
    "address_2": "Pococí",
    "website": "",
    "rating": 3.7,
    "reviews_count": 23,
    "thumbnail": "https://lh5.googleusercontent.com/p/AF1QipOwiHBplJ6MJm2gSShPmhj-CFZK_QDzSD2vWVh3",
    "latitude": 10.4067613,
    "longitude": -83.691567,
    "type": "Bakery"
  },
  {
    "name": "Palí",
    "address_1": "Unnamed road Limón",
    "address_2": "Limón, Pococí",
    "website": "maxipali.co.cr",
    "rating": 3.9,
    "reviews_count": 385,
    "thumbnail": "https://lh5.googleusercontent.com/p/AF1QipMdj2o_5XIVjDmp-I2LIqUcs34k6rV1UiQs68Ti",
    "latitude": 10.3599395,
    "longitude": -83.7365165,
    "type": "Supermarket"
  },
  {
    "name": "Ohlala Cafeteria",
    "address_1": "25 oeste Autorepuestos El Colono",
    "address_2": "Limón, Cariari, Pococi",
    "website": "ohlala-cafeteria.negocio.site",
    "rating": 4.8,
    "reviews_count": 71,
    "thumbnail": "https://lh5.googleusercontent.com/p/AF1QipNH0jaALtijp51df0riXloPDBFYgZVKjKyU8rIq",
    "latitude": 10.3577529,
    "longitude": -83.736675,
    "type": "Coffee shop"
  },
  {
    "name": "Super Lucky Cariari",
    "address_1": "Limón, Pococí",
    "address_2": 70205,
    "website": "facebook.com",
    "rating": 4.4,
    "reviews_count": 220,
    "thumbnail": "https://lh5.googleusercontent.com/p/AF1QipOtfRkT_ffCgRzIpyxjlCjNjNqGuDUw4XRU1W8o",
    "latitude": 10.3638583,
    "longitude": -83.7333015,
    "type": "Supermarket"
  },
  {
    "name": "Servicios Veterinarios del Caribe-Cariari",
    "address_1": "9778+656",
    "address_2": 247,
    "website": "",
    "rating": 4.4,
    "reviews_count": 20,
    "thumbnail": "https://lh5.googleusercontent.com/p/AF1QipNuoM2tFNXYdynXdGaPKtiuTehWLZUtm_F6Hn0",
    "latitude": 10.3630499,
    "longitude": -83.7346136,
    "type": "Pet store"
  },
  {
    "name": "Zapatería Meneses",
    "address_1": "Limón, Pococí",
    "address_2": 70205,
    "website": "zapateriamenesescr.com",
    "rating": 4.3,
    "reviews_count": 56,
    "thumbnail": "https://lh5.googleusercontent.com/p/AF1QipM5cvgC2IErH84ee7atFqn4xyDLHjoFhP43Gw8L",
    "latitude": 10.3626419,
    "longitude": -83.7336099,
    "type": "Shoe store"
  },
  {
    "name": "Artelec Pococí",
    "address_1": "25 metros Oeste de Perimercados",
    "address_2": "Limón, Guápiles",
    "website": "artelec.cr",
    "rating": 3.9,
    "reviews_count": 27,
    "thumbnail": "https://lh5.googleusercontent.com/p/AF1QipMymS0rPPFvCyjGxt7lvjlfh5YgeSybdPd2GbIV",
    "latitude": 10.2135824,
    "longitude": -83.7874677,
    "type": "Appliance store"
  },
  {
    "name": "Panaderia Servipan",
    "address_1": "150 Norte Terminal de Coopetraca",
    "address_2": 247,
    "website": "facebook.com",
    "rating": 4.3,
    "reviews_count": 99,
    "thumbnail": "https://lh5.googleusercontent.com/p/AF1QipMTMUyKkdM7pbTSwqR0zLxf48VH1DRucmVe4LwE",
    "latitude": 10.3629303,
    "longitude": -83.7337941,
    "type": "Bakery"
  },
  {
    "name": "Ciclo Mavic",
    "address_1": "Frente al Banco Nacional, contiguo al Mundo Mágico, Ruta 247",
    "address_2": "Limón, Cantón de Pococí",
    "website": "ciclomavic.com",
    "rating": 4.8,
    "reviews_count": 23,
    "thumbnail": "https://lh5.googleusercontent.com/p/AF1QipOuQnQnHK-g-Peixb-uF3E0yeVW6AB-u9pvGoOt",
    "latitude": 10.360745,
    "longitude": -83.733824,
    "type": "Bicycle Shop"
  },
  {
    "name": "Ciclo Chacón",
    "address_1": "200 metros oeste y 50 norte de la Iglesia Catolica",
    "address_2": "Limón Province, Guapiles",
    "website": "",
    "rating": 4.3,
    "reviews_count": 51,
    "thumbnail": "https://lh5.googleusercontent.com/p/AF1QipN9hgVF4_k35nlbPJxerXpkkez1R1BaJf_cNaf3",
    "latitude": 10.2147144,
    "longitude": -83.7918713,
    "type": "Bicycle Shop"
  },
  {
    "name": "Pulpería el Zota CM",
    "address_1": "70201 Limón Sota",
    "address_2": 70201,
    "website": "negocio.site",
    "rating": 5,
    "reviews_count": 2,
    "thumbnail": "https://lh5.googleusercontent.com/p/AF1QipP8DepYVigHcSgJWzQxRadohMpc5Kg7juHK2q5D",
    "latitude": 10.4695408,
    "longitude": -83.7999194,
    "type": "Supermarket"
  },
  {
    "name": "Súper salón el sura",
    "address_1": "9758+XGX",
    "address_2": 247,
    "website": "supersaloncr.com",
    "rating": "",
    "reviews_count": "",
    "thumbnail": "",
    "latitude": 10.3599753,
    "longitude": -83.7336406,
    "type": "Cosmetics store"
  },
  {
    "name": "FM Fuente Musical",
    "address_1": "6685+2M8",
    "address_2": "C. 2",
    "website": "",
    "rating": 4,
    "reviews_count": 58,
    "thumbnail": "https://lh5.googleusercontent.com/p/AF1QipMnjjC0D3McZCgAJTQQAqY9wSTePBms8ABtHWNS",
    "latitude": 10.2150431,
    "longitude": -83.7908068,
    "type": "Musical instrument store"
  },
  {
    "name": "Comercial Marianela",
    "address_1": "4MCM+FXM",
    "address_2": "Unnamed Road, Limón",
    "website": "",
    "rating": 5,
    "reviews_count": 2,
    "thumbnail": "",
    "latitude": 10.1212208,
    "longitude": -83.3150745,
    "type": "Clothing store"
  },
  {
    "name": "Súper La Favorita",
    "address_1": "75 metros este de la guardia rural de Cariari Limón",
    "address_2": "Pococí",
    "website": "",
    "rating": 4.2,
    "reviews_count": 154,
    "thumbnail": "https://lh5.googleusercontent.com/p/AF1QipM6_8iLDsWt_h4e7U8PSnqQb-HhjuFf6wS-yfWG",
    "latitude": 10.3613446,
    "longitude": -83.7332557,
    "type": "Supermarket"
  },
  {
    "name": "Supermercado Maxiconsumo Cariari",
    "address_1": "9758+VJ5",
    "address_2": "Limón Province, Roxana",
    "website": "",
    "rating": 4,
    "reviews_count": 144,
    "thumbnail": "https://lh5.googleusercontent.com/p/AF1QipOIG9Ogu7jfF3nVP2dEWBcKLiGKNi9TTBHAOvyq",
    "latitude": 10.3596372,
    "longitude": -83.7333938,
    "type": "Supermarket"
  },
  {
    "name": "Golden Days Tattoo 0026 Piercing",
    "address_1": "frente al CECUDI",
    "address_2": "Av. 11",
    "website": "goldendayscr.com",
    "rating": 4.8,
    "reviews_count": 70,
    "thumbnail": "https://lh5.googleusercontent.com/p/AF1QipOrxrNCgdTJsn2Xr7Tc2NisE-XaJrGv8QNyPRIc",
    "latitude": 10.2179225,
    "longitude": -83.791201,
    "type": "Store"
  },
  {
    "name": "Tienda Mz",
    "address_1": "",
    "address_2": "",
    "website": "",
    "rating": "",
    "reviews_count": "",
    "thumbnail": "https://lh5.googleusercontent.com/p/AF1QipNNDdZTY0KZJCYf0VBphk2bq7jlqKILckPzLA8I",
    "latitude": 8.3578905,
    "longitude": -84.80865,
    "type": "Clothing store"
  },
  {
    "name": "Repuestos Fakar",
    "address_1": "6622+RM4",
    "address_2": "Limón Province, Guapiles",
    "website": "",
    "rating": 4.4,
    "reviews_count": 127,
    "thumbnail": "https://lh5.googleusercontent.com/p/AF1QipNn6OmxXMVR_gWEV5fm6XQYQXaeieH9ue3I8pg_",
    "latitude": 10.2020082,
    "longitude": -83.7983014,
    "type": "Store"
  },
  {
    "name": "Súper San Martín",
    "address_1": "Frente A Escuela Campo Kennedy, Cariari",
    "address_2": "Limón Province, Pococí",
    "website": "",
    "rating": 4.1,
    "reviews_count": 78,
    "thumbnail": "https://lh5.googleusercontent.com/p/AF1QipNn9-ramndV4xqZcSNwEifmKG2yZvlBn2YAQfft",
    "latitude": 10.3604903,
    "longitude": -83.7339729,
    "type": "Supermarket"
  },
  {
    "name": "Repuestos Flaco Cariari",
    "address_1": "70205 Limon Cariari De Pococi",
    "address_2": 70205,
    "website": "",
    "rating": 4.2,
    "reviews_count": 5,
    "thumbnail": "https://lh5.googleusercontent.com/p/AF1QipMxPGr-IliDhA9moaZxqVSFCNjnJeFHGMyNub5u",
    "latitude": 10.3712393,
    "longitude": -83.7295292,
    "type": "Auto parts store"
  },
  {
    "name": "Subasta Ganadera",
    "address_1": "66FC+82H",
    "address_2": "Campo Ferial Expo-Pococí, 247",
    "website": "",
    "rating": 4.3,
    "reviews_count": 83,
    "thumbnail": "https://lh5.googleusercontent.com/p/AF1QipMYeXOFIRvEoJGgYwSmot4dIRGxBTQF6FkEJh-6",
    "latitude": 10.2233057,
    "longitude": -83.7799051,
    "type": "Store"
  },
  {
    "name": "AUTO REPUESTOS SUPERIOR POCOCI S A",
    "address_1": "100 METROS SUR DEL CEMENTERIO",
    "address_2": "Limón, Guápiles",
    "website": "",
    "rating": 4.1,
    "reviews_count": 44,
    "thumbnail": "https://lh5.googleusercontent.com/p/AF1QipMkrxeI6gVRQJkLtNrDiw_Dwj5hcYO8Ut9rslMX",
    "latitude": 10.2115757,
    "longitude": -83.7960747,
    "type": "Racing car parts store"
  },
  {
    "name": "Colono Agropecuario Ticabán",
    "address_1": "Ticabán finca 1, contiguo aeropuerto de Ticabán",
    "address_2": "Ticabán, Limón, Pococí",
    "website": "colonoagropecuario.com",
    "rating": 4.7,
    "reviews_count": 6,
    "thumbnail": "https://lh5.googleusercontent.com/p/AF1QipM2uQ6DqE9Oxdho9fjSyw0aFqxusE2LXbBUzUMo",
    "latitude": 10.3943489,
    "longitude": -83.8308507,
    "type": "Warehouse"
  },
  {
    "name": "Colono Construcción Cariari",
    "address_1": "Cariari, Frente a estación Uno Limón Cariari",
    "address_2": 70301,
    "website": "colonoconstruccion.com",
    "rating": 4.4,
    "reviews_count": 148,
    "thumbnail": "https://lh5.googleusercontent.com/p/AF1QipNi9m-9-pla5zFkPgxeJSnkeU-qUXf9Lt7ftbmH",
    "latitude": 10.3581537,
    "longitude": -83.7352177,
    "type": "Building materials store"
  },
  {
    "name": "Ekono Limón",
    "address_1": "XXVC+7FJ",
    "address_2": "Limón Province, Limon",
    "website": "tiendasekono.com",
    "rating": 4,
    "reviews_count": 275,
    "thumbnail": "https://lh5.googleusercontent.com/p/AF1QipNn8Uw1XS4z3p5WiXfRjIdyM07ZVPK_6wY5AIcn",
    "latitude": 9.9932118,
    "longitude": -83.0288627,
    "type": "Clothing store"
  },
  {
    "name": "Importadora el Amigo Siquirres",
    "address_1": "Frente a la Plaza de Deportes, contiguo a Panadería La Castellana Limón Siquirres",
    "address_2": 70301,
    "website": "casoma.com",
    "rating": 4,
    "reviews_count": 76,
    "thumbnail": "https://lh5.googleusercontent.com/p/AF1QipO377rOvnFWTE8r6OC17RVXTtDtVnQLAT9NhfI6",
    "latitude": 10.09681,
    "longitude": -83.5059377,
    "type": "Department store"
  },
  {
    "name": "Bananera Siquirres",
    "address_1": "4GC9+JPJ",
    "address_2": "Limón Province, Limon",
    "website": "",
    "rating": 4.4,
    "reviews_count": 46,
    "thumbnail": "https://lh5.googleusercontent.com/p/AF1QipPCNuqf6kMthX5Y3t6r_IgJbNUYpXZmCpoSL5hm",
    "latitude": 10.1215776,
    "longitude": -83.4807207,
    "type": "Grocery store"
  },
  {
    "name": "Multi Repuestos Richard",
    "address_1": "66F9+HHH",
    "address_2": "Costado norte Servicentro JSM frente a la Expo Pococi Guapiles Limon CR",
    "website": "guiacaribe.com",
    "rating": 4.5,
    "reviews_count": 10,
    "thumbnail": "https://lh5.googleusercontent.com/p/AF1QipPer_HiaPWrPx_QcGjSmRENoFQm6A5rJSrL8t7H",
    "latitude": 10.2239455,
    "longitude": -83.7810209,
    "type": "Auto parts store"
  },
  {
    "name": "Singer Cariari",
    "address_1": "50 mts sur de la clinica del seguro social",
    "address_2": "Limón, Pococí",
    "website": "facebook.com",
    "rating": 3.3,
    "reviews_count": 36,
    "thumbnail": "https://lh5.googleusercontent.com/p/AF1QipMJZFe32LEAx7EMPoREIwAufkw3GXsY2OeO_wuh",
    "latitude": 10.3599843,
    "longitude": -83.7359598,
    "type": "Used appliance store"
  },
  {
    "name": "Plastech Guapiles",
    "address_1": "Ctra. Braulio Carrillo",
    "address_2": "Limón Province, Guapiles",
    "website": "",
    "rating": 4.6,
    "reviews_count": 52,
    "thumbnail": "https://lh5.googleusercontent.com/p/AF1QipNZDhAy3jTxrquymByuZxcnoIp6yz9h1rg9Z51n",
    "latitude": 10.2019315,
    "longitude": -83.7944951,
    "type": "Building materials store"
  },
  {
    "name": "Kraken Lure's Tienda de Pesca",
    "address_1": "Entrada principal a guacimo frente al lubricar, Limón, Guácimo",
    "address_2": 70601,
    "website": "",
    "rating": 4.3,
    "reviews_count": 80,
    "thumbnail": "https://lh5.googleusercontent.com/p/AF1QipPnYdaN19LDhvEoHx2f-Zbgk4SwIaGk4cEv_rq_",
    "latitude": 10.2062924,
    "longitude": -83.6844779,
    "type": "Fishing store"
  },
  {
    "name": "INS sede Guápiles",
    "address_1": "6688+3Q8",
    "address_2": "Limón Province, Guapiles",
    "website": "",
    "rating": 4.2,
    "reviews_count": 50,
    "thumbnail": "",
    "latitude": 10.2151734,
    "longitude": -83.7830345,
    "type": "Store"
  },
  {
    "name": "Tienda el Angel Propiedad en Venta",
    "address_1": "9778+F7V",
    "address_2": "Unnamed Road,Limón",
    "website": "",
    "rating": 5,
    "reviews_count": 3,
    "thumbnail": "https://lh5.googleusercontent.com/p/AF1QipP02VBcaBrh09Vtqi5Z54YjqBpeKy6Vqa2algyW",
    "latitude": 10.3637384,
    "longitude": -83.7343384,
    "type": "Clothing store"
  },
  {
    "name": "Servi Repuestos de Motos S.A (La Singer)",
    "address_1": "75m Sur de Mas x Menos Limón Guápiles",
    "address_2": 70201,
    "website": "",
    "rating": 4.3,
    "reviews_count": 246,
    "thumbnail": "https://lh5.googleusercontent.com/p/AF1QipM4wlQ1veBMU23nRLK73GEuWSg2JYfUHWFT9dTk",
    "latitude": 10.2119867,
    "longitude": -83.784832,
    "type": "Motorcycle parts store"
  },
  {
    "name": "Calzado Moderno",
    "address_1": "Guápiles 100sur Bomberos",
    "address_2": "Costa Rica",
    "website": "",
    "rating": 4.4,
    "reviews_count": 123,
    "thumbnail": "https://lh5.googleusercontent.com/p/AF1QipONFK_hU_wSK0gjGIINl50xyHMjg2XoUblFj9Ij",
    "latitude": 10.2146934,
    "longitude": -83.7899491,
    "type": "Shoe store"
  },
  {
    "name": "Bicitallercr",
    "address_1": "6688+6V4",
    "address_2": "Limón, Guápiles",
    "website": "",
    "rating": 5,
    "reviews_count": 3,
    "thumbnail": "https://lh5.googleusercontent.com/p/AF1QipPdBkRKatcOyll76Cjwox3QM7xpYVIhdjJHlBjq",
    "latitude": 10.215507,
    "longitude": -83.7827837,
    "type": "Bicycle Shop"
  },
  {
    "name": "Carniceria Maroto Cariari",
    "address_1": "50 metro este del Ebais",
    "address_2": "Limón, Pococí",
    "website": "",
    "rating": 4,
    "reviews_count": 4,
    "thumbnail": "https://lh5.googleusercontent.com/p/AF1QipPD5aI4LIjAK44v6jOri8egnI7in6wTiIJYPOXa",
    "latitude": 10.3596554,
    "longitude": -83.7360835,
    "type": "Butcher shop"
  },
  {
    "name": "Farmacia Pococí S.A",
    "address_1": "75 metros este del Banco Nacional Limón Cariari Centro",
    "address_2": 70205,
    "website": "",
    "rating": 3,
    "reviews_count": 1,
    "thumbnail": "https://lh5.googleusercontent.com/p/AF1QipMCfhekiijotnWJEvAyIk3g0B2DJWAFKgDvvT9b",
    "latitude": 10.3610397,
    "longitude": -83.7332214,
    "type": "Pharmacy"
  },
  {
    "name": "Macrobiótica La Central",
    "address_1": "Costado oeste de la Iglesía Católica, diagonal a nuestra antigua ubicación Limón Guápiles",
    "address_2": 70201,
    "website": "",
    "rating": 4.4,
    "reviews_count": 7,
    "thumbnail": "https://lh5.googleusercontent.com/p/AF1QipMedI2GDRZzF-W7KuJljpInkwtfi2T1NhDcu3-Z",
    "latitude": 10.2145871,
    "longitude": -83.7899768,
    "type": "Homeopathic pharmacy"
  },
  {
    "name": "Taller Gómez",
    "address_1": "Nuevo Guápiles",
    "address_2": "Limón Province, Guapiles",
    "website": "",
    "rating": 4.3,
    "reviews_count": 107,
    "thumbnail": "https://lh5.googleusercontent.com/p/AF1QipMUJysETqiM332Cqq5nMlMbCYHOSzWTGZl3Pn2O",
    "latitude": 10.2025544,
    "longitude": -83.7801826,
    "type": "Muffler shop"
  },
  {
    "name": "LavandaLimón Repostería por encargo",
    "address_1": "Trans. 38",
    "address_2": "La Palma, Heredia Province, Heredia",
    "website": "",
    "rating": 1,
    "reviews_count": 1,
    "thumbnail": "",
    "latitude": 9.9986622,
    "longitude": -84.1341181,
    "type": "Pastry shop"
  },
  {
    "name": "Finca Banasol 2",
    "address_1": "289611, -83.568865",
    "address_2": 10,
    "website": "",
    "rating": 4,
    "reviews_count": 41,
    "thumbnail": "https://lh5.googleusercontent.com/p/AF1QipNGKjy2hYt8jSys5ZX43BGrKghxyH8DsvryWR5R",
    "latitude": 10.2896166,
    "longitude": -83.5688633,
    "type": "Produce market"
  },
  {
    "name": "Pasteleria Sugar Dreams",
    "address_1": "Limón Province, Guapiles",
    "address_2": "Costa Rica",
    "website": "facebook.com",
    "rating": 5,
    "reviews_count": 1,
    "thumbnail": "https://lh5.googleusercontent.com/p/AF1QipMadNvY8vJBIrCK4BSlOHZzBLFiJRSNegmEw8KB",
    "latitude": 10.2095899,
    "longitude": -83.753189,
    "type": "Cake shop"
  },
  {
    "name": "Tienda Infantil Paso A Paso",
    "address_1": "Limón Siquirres, 70301 Limón Siquirres",
    "address_2": 70301,
    "website": "pasoapasocr.com",
    "rating": 4.6,
    "reviews_count": 7,
    "thumbnail": "https://lh5.googleusercontent.com/p/AF1QipNNV_U0dzgKkoUqKdRjlpGOsUc8cUmkJSDf406I",
    "latitude": 10.0954595,
    "longitude": -83.5050686,
    "type": "Children's clothing store"
  },
  {
    "name": "Centro Plástico Bolsas JMG",
    "address_1": "Guápiles, 150 metros este del cementerio Limón Pococí",
    "address_2": 70201,
    "website": "negocio.site",
    "rating": 5,
    "reviews_count": 7,
    "thumbnail": "https://lh5.googleusercontent.com/p/AF1QipPt0qcntlcnqS1ZX4A8UzpeTuCC0Jpiwb88jTc_",
    "latitude": 10.2136905,
    "longitude": -83.7942793,
    "type": "Plastic products supplier"
  },
  {
    "name": "TIENDAS GOLLO",
    "address_1": "Limón, Siquirres centro antigua librería Caribe",
    "address_2": "Limón",
    "website": "gollotienda.com",
    "rating": 3.5,
    "reviews_count": 21,
    "thumbnail": "",
    "latitude": 10.0970857,
    "longitude": -83.5055733,
    "type": "Appliance store"
  },
  {
    "name": "Mangrove Souvenir and Fruit Shop",
    "address_1": "Limón Province, Río Banano",
    "address_2": "Costa Rica",
    "website": "facebook.com",
    "rating": 4.2,
    "reviews_count": 149,
    "thumbnail": "https://lh5.googleusercontent.com/p/AF1QipNZkTXxp-UKJSd8-KY_Vha6ntZKeKTyCIUSTzEP",
    "latitude": 9.9176321,
    "longitude": -83.0163856,
    "type": "Souvenir store"
  },
  {
    "name": "Tiendas Pague Menos",
    "address_1": "XVWJ+G8C",
    "address_2": "Limón barrio, Heredia Province, Heredia",
    "website": "paguemenos.com",
    "rating": 4.3,
    "reviews_count": 30,
    "thumbnail": "https://lh5.googleusercontent.com/p/AF1QipN1HSlvicNCPaGEh-AdtWBtC7mbYuXjNWAbrf1P",
    "latitude": 9.996318,
    "longitude": -84.1192207,
    "type": "Department store"
  },
  {
    "name": "Panadería Palermo.",
    "address_1": "97C6+J6",
    "address_2": "Barrio Palermo, Limón, Pococí",
    "website": "",
    "rating": 5,
    "reviews_count": 1,
    "thumbnail": "https://lh5.googleusercontent.com/p/AF1QipPblLD_w5i8N-haOwC7-isCvOJXULtIvJgeaGbr",
    "latitude": 10.3714888,
    "longitude": -83.739312,
    "type": "Bakery"
  },
  {
    "name": "Tienda Jose Paolo",
    "address_1": "6859+96Q",
    "address_2": "C. 1",
    "website": "",
    "rating": "",
    "reviews_count": "",
    "thumbnail": "",
    "latitude": 10.2084582,
    "longitude": -83.6819007,
    "type": "Clothing store"
  },
  {
    "name": "Carnicería La Predilecta",
    "address_1": "9758+Q8Q",
    "address_2": 247,
    "website": "m.facebook.com",
    "rating": "",
    "reviews_count": "",
    "thumbnail": "",
    "latitude": 10.359471,
    "longitude": -83.7341338,
    "type": "Butcher shop"
  },
  {
    "name": "Tienda No Fear",
    "address_1": "3FXW+263",
    "address_2": "Limón Province, Siquirres",
    "website": "",
    "rating": 4.7,
    "reviews_count": 3,
    "thumbnail": "",
    "latitude": 10.0975145,
    "longitude": -83.5044381,
    "type": "Clothing store"
  }
]