[
  {
    "name": "Tienda Sol y Luna",
    "address_1": "70201 Ticabán, Barrio La Unión Limón Guápiles",
    "address_2": 70201,
    "website": "",
    "rating": 4.9,
    "reviews_count": 9,
    "thumbnail": "https://lh5.googleusercontent.com/p/AF1QipP_ujBwQ_aOpwpU87JzK-GieTw5A0S6hEEa8zlm",
    "latitude": 10.3977309,
    "longitude": -83.8344574,
    "type": "Clothing store"
  },
  {
    "name": "Pequeño Mundo Pococí",
    "address_1": "Guápiles",
    "address_2": "Limón, Pococí",
    "website": "pequenomundo.com",
    "rating": 4.4,
    "reviews_count": 3419,
    "thumbnail": "https://lh5.googleusercontent.com/p/AF1QipPjI1ZcbTBD8uBHYbBk5M271-EWvWCdLm2c9Wcm",
    "latitude": 10.2012462,
    "longitude": -83.7851409,
    "type": "Department store"
  },
  {
    "name": "Pococi exprés",
    "address_1": "Limón, Pococí",
    "address_2": 70205,
    "website": "sumerlabs.com",
    "rating": "",
    "reviews_count": "",
    "thumbnail": "https://lh5.googleusercontent.com/p/AF1QipPsL_nss4C7C-uT7T7eIJcjEPQSuxLaRZ-O0MwB",
    "latitude": 10.4895752,
    "longitude": -83.6194265,
    "type": "Store"
  },
  {
    "name": "Tienda Genesis",
    "address_1": "9768+GPW",
    "address_2": "Frente a super la favorita , Limón, Pococí",
    "website": "",
    "rating": "",
    "reviews_count": "",
    "thumbnail": "https://lh5.googleusercontent.com/p/AF1QipNF-Ck2t6qAlvD2rxz3GlkobFfZU3BGb6FgM5FQ",
    "latitude": 10.3613572,
    "longitude": -83.7331873,
    "type": "Clothing store"
  },
  {
    "name": "tienda Famaa",
    "address_1": "6687+7J4",
    "address_2": "C. 7",
    "website": "",
    "rating": 3,
    "reviews_count": 1,
    "thumbnail": "https://lh5.googleusercontent.com/p/AF1QipM6498sTiJDaZwDHrnfmPq9JR3CO9t7EZhiNbmn",
    "latitude": 10.2156476,
    "longitude": -83.7859319,
    "type": "Clothing store"
  },
  {
    "name": "Piñatica's Fiesta todo personalizado exclusivo para tu fiesta",
    "address_1": "00506 Limón",
    "address_2": "Costa Rica",
    "website": "",
    "rating": 5,
    "reviews_count": 1,
    "thumbnail": "https://lh5.googleusercontent.com/p/AF1QipPaCHjPzeOwl6JWh9i0QbnGtc4mkUu42GHCaZT3",
    "latitude": 10.3402126,
    "longitude": -83.7565359,
    "type": "Party store"
  },
  {
    "name": "Granja de Gera",
    "address_1": "Guápiles Pococi Cariari de Pococí 800 norte del Liceo de Cariari Limón Guapiles",
    "address_2": 70205,
    "website": "",
    "rating": "",
    "reviews_count": "",
    "thumbnail": "https://lh5.googleusercontent.com/p/AF1QipP6kSl90X4l4qGiYrhQX0VwogPQYa7reeX-r58",
    "latitude": 10.488088,
    "longitude": -83.6135572,
    "type": "Store"
  },
  {
    "name": "Caribbean Guápiles",
    "address_1": "interseccion de Calle 5 con Avenida Central",
    "address_2": "Limón, Guápiles",
    "website": "",
    "rating": 4.3,
    "reviews_count": 45,
    "thumbnail": "https://lh5.googleusercontent.com/p/AF1QipPFzFzXHyj99an9nTXtGn4InPe33Dm_t3rewhT0",
    "latitude": 10.212737,
    "longitude": -83.786765,
    "type": "Store"
  },
  {
    "name": "Tieda Anicia",
    "address_1": "Ticabán, Limón Province, Pococí",
    "address_2": "Costa Rica",
    "website": "",
    "rating": 3.9,
    "reviews_count": 29,
    "thumbnail": "https://lh5.googleusercontent.com/p/AF1QipOXsTgLyWplD5AuLhlwHj58mRvh9IoM4xbxHr_R",
    "latitude": 10.3966341,
    "longitude": -83.8351249,
    "type": "Clothing store"
  },
  {
    "name": "Caya Store Sublimación",
    "address_1": "Cariari, Limón",
    "address_2": "Limón, Pococí",
    "website": "",
    "rating": 4.3,
    "reviews_count": 3,
    "thumbnail": "https://lh5.googleusercontent.com/p/AF1QipNFNvdOg34Il8nESWRJlwvV2H_ltedvKZiNeOMY",
    "latitude": 10.365905,
    "longitude": -83.7473409,
    "type": "Clothing store"
  },
  {
    "name": "TIENDA VIRTUAL VARIEDADES J0026A",
    "address_1": "",
    "address_2": "",
    "website": "",
    "rating": "",
    "reviews_count": "",
    "thumbnail": "https://lh5.googleusercontent.com/p/AF1QipMhUWr6W6MP2U_o7xx7TThbODA3nnqq7HhOiy2Y",
    "latitude": 8.3578905,
    "longitude": -84.80865,
    "type": "Clothing store"
  },
  {
    "name": "Underwear Angelica's S.A",
    "address_1": "Urbanización el Llano 75 Oeste 25Sur Limón Pococi",
    "address_2": 70205,
    "website": "negocio.site",
    "rating": "",
    "reviews_count": "",
    "thumbnail": "https://lh5.googleusercontent.com/p/AF1QipPMRmWG07Rlc-tUd7I6f1Qwd1GWnS8ligWvFQvp",
    "latitude": 10.4230878,
    "longitude": -83.7199136,
    "type": "Underwear store"
  },
  {
    "name": "GuiSs boutique",
    "address_1": "87X7+PF8",
    "address_2": 247,
    "website": "",
    "rating": "",
    "reviews_count": "",
    "thumbnail": "https://lh5.googleusercontent.com/p/AF1QipPZlz-0Bo7zEwg3JTUo9j--gf1PRIy38Hej12Rm",
    "latitude": 10.3492787,
    "longitude": -83.7362899,
    "type": "Women's clothing store"
  },
  {
    "name": "Quality Fashion",
    "address_1": "Guapiles Centro 25 oeste y 50 sur del Gollo Boulevar",
    "address_2": "C. 3",
    "website": "",
    "rating": 4.6,
    "reviews_count": 17,
    "thumbnail": "https://lh5.googleusercontent.com/p/AF1QipNY7tVRw_-XjUXZwRMI-OgttkVU4sguHXP6A6L-",
    "latitude": 10.2112436,
    "longitude": -83.7891694,
    "type": "Clothing store"
  },
  {
    "name": "Tienda Cleveland Guapiles",
    "address_1": "6676+87R",
    "address_2": 149,
    "website": "",
    "rating": 3.1,
    "reviews_count": 13,
    "thumbnail": "",
    "latitude": 10.2132125,
    "longitude": -83.789217,
    "type": "Used clothing store"
  },
  {
    "name": "Sunshine Clothing",
    "address_1": "F9QP+6HP",
    "address_2": "Limón Province, Pococí",
    "website": "",
    "rating": "",
    "reviews_count": "",
    "thumbnail": "https://lh5.googleusercontent.com/p/AF1QipPAnf6vVfu4RGXiyAyXi4yhnsGCLWFrCz3JJszG",
    "latitude": 10.488088,
    "longitude": -83.6135572,
    "type": "Clothing store"
  },
  {
    "name": "Tienda Rivera Jeans",
    "address_1": "9779+93V",
    "address_2": 247,
    "website": "",
    "rating": "",
    "reviews_count": "",
    "thumbnail": "",
    "latitude": 10.3634767,
    "longitude": -83.7323163,
    "type": "Clothing store"
  },
  {
    "name": "Tienda Isabel",
    "address_1": "Escuela Primaria de Cariari",
    "address_2": "Limón Province, Roxana",
    "website": "",
    "rating": 1,
    "reviews_count": 1,
    "thumbnail": "",
    "latitude": 10.360665,
    "longitude": -83.7341796,
    "type": "Store"
  },
  {
    "name": "Tienda de ropa",
    "address_1": "F72V+PHV",
    "address_2": "Limón, Pococí",
    "website": "",
    "rating": "",
    "reviews_count": "",
    "thumbnail": "",
    "latitude": 10.4518607,
    "longitude": -83.7060889,
    "type": "Clothing store"
  },
  {
    "name": "Tienda Olmareli",
    "address_1": "Costado oeste de la Iglesia Catolica de Guápiles",
    "address_2": "Guápiles",
    "website": "facebook.com",
    "rating": 5,
    "reviews_count": 4,
    "thumbnail": "https://lh5.googleusercontent.com/p/AF1QipNYHHgsOt4mwKR6uflMaSyFzViiCbM5dsTw2yHx",
    "latitude": 10.214404,
    "longitude": -83.789997,
    "type": "Clothing store"
  },
  {
    "name": "Tienda Infantil Coqueterías",
    "address_1": "6685+7JQ",
    "address_2": "Limón, Guápiles",
    "website": "",
    "rating": 5,
    "reviews_count": 1,
    "thumbnail": "",
    "latitude": 10.2157047,
    "longitude": -83.7908813,
    "type": "Clothing store"
  },
  {
    "name": "Souvenir Pura Vida",
    "address_1": "Main Street",
    "address_2": "Limón Province",
    "website": "",
    "rating": 5,
    "reviews_count": 5,
    "thumbnail": "https://lh5.googleusercontent.com/p/AF1QipPWuzqpfprsceDy1nWUPsbg0IJueF4aYvxkpJY",
    "latitude": 10.542187,
    "longitude": -83.503613,
    "type": "Souvenir store"
  },
  {
    "name": "Árboles Injertados y Plantasntas Ornamentotales C0026R POCOCÍ",
    "address_1": "247, Limón, Pococí",
    "address_2": "Costa Rica",
    "website": "",
    "rating": 5,
    "reviews_count": 2,
    "thumbnail": "https://lh5.googleusercontent.com/p/AF1QipOdBrGdhO6u-L8H7BkJ9QWfzWyipBHjqEtolka7",
    "latitude": 10.3323488,
    "longitude": -83.7500918,
    "type": "Home goods store"
  },
  {
    "name": "Supermercado el ahorro",
    "address_1": "9768+9W3",
    "address_2": "Limón, Pococí",
    "website": "",
    "rating": 4.2,
    "reviews_count": 29,
    "thumbnail": "",
    "latitude": 10.3608921,
    "longitude": -83.7327064,
    "type": "Supermarket"
  },
  {
    "name": "Super El Llano",
    "address_1": "9757+48J",
    "address_2": "Unnamed Road, Limón",
    "website": "",
    "rating": 4.5,
    "reviews_count": 4,
    "thumbnail": "https://lh5.googleusercontent.com/p/AF1QipNPsxn91VqXeWWANwFBixoiKqJQ4PqBgOoFBOjL",
    "latitude": 10.3578359,
    "longitude": -83.7367366,
    "type": "Supermarket"
  },
  {
    "name": "Importadora Monge",
    "address_1": "CONTIGUO EKONO.CENTRO COMERCIAL EL SURA Limón Cariari",
    "address_2": 70205,
    "website": "tiendamonge.com",
    "rating": "",
    "reviews_count": "",
    "thumbnail": "",
    "latitude": 10.488088,
    "longitude": -83.6135572,
    "type": "Appliance store"
  },
  {
    "name": "LYJ Ropa Colombiana",
    "address_1": "6628+MXJ",
    "address_2": "Limón, Guápiles",
    "website": "",
    "rating": "",
    "reviews_count": "",
    "thumbnail": "",
    "latitude": 10.2017036,
    "longitude": -83.7826126,
    "type": "Clothing store"
  },
  {
    "name": "Tienda Orgánica MundoSano Cariari pococí",
    "address_1": "9757+XJC",
    "address_2": "Unnamed Road",
    "website": "",
    "rating": "",
    "reviews_count": "",
    "thumbnail": "https://lh5.googleusercontent.com/p/AF1QipOVPbgW7Jui4yY2ItC8Zyde9a6hjaJh7-cOfT_d",
    "latitude": 10.3599499,
    "longitude": -83.735997,
    "type": "Natural goods store"
  },
  {
    "name": "Mini Super Loren",
    "address_1": "Cariari Limón Astua Pirie",
    "address_2": "Costa Rica",
    "website": "",
    "rating": 4.1,
    "reviews_count": 106,
    "thumbnail": "https://lh5.googleusercontent.com/p/AF1QipPHcWi9UnuamJmmsb7BQk0YUtRxH-o5m-GPUqCU",
    "latitude": 10.3407418,
    "longitude": -83.7378331,
    "type": "Supermarket"
  },
  {
    "name": "Ekono",
    "address_1": "9758+V8R",
    "address_2": "Limón, Roxana",
    "website": "",
    "rating": 4.2,
    "reviews_count": 77,
    "thumbnail": "https://lh5.googleusercontent.com/p/AF1QipOORymbxu6hpn_mgvleCbHKm2g3EhoOmwF9k9Op",
    "latitude": 10.3597487,
    "longitude": -83.7342478,
    "type": "Clothing store"
  },
  {
    "name": "CEN-CINAI",
    "address_1": "Roxana Centro, De La Escuela 25 M Oeste.",
    "address_2": "Limón, Roxana",
    "website": "",
    "rating": 4,
    "reviews_count": 6,
    "thumbnail": "https://lh5.googleusercontent.com/p/AF1QipMTwP4hmxLtII7GRRrlyc-AxBVt9WvpzJ6HiN-Y",
    "latitude": 10.2753865,
    "longitude": -83.7511891,
    "type": "Store"
  },
  {
    "name": "El Rey Guapiles",
    "address_1": "6668+R75",
    "address_2": "Barrio Pinares, Limón, Guápiles",
    "website": "almaceneselrey.com",
    "rating": 4.4,
    "reviews_count": 1331,
    "thumbnail": "https://lh5.googleusercontent.com/p/AF1QipMXKwQ_bc5n54v5qhk_VV688O6d3aWtivmGqmUV",
    "latitude": 10.2120186,
    "longitude": -83.7842777,
    "type": "Warehouse store"
  },
  {
    "name": "Multiservicios Zúñiga",
    "address_1": "San Gerardo de Ticaban, en la Rita de Pococí, de la escuela 400 metros este Limón La Rita",
    "address_2": 70201,
    "website": "negocio.site",
    "rating": "",
    "reviews_count": "",
    "thumbnail": "",
    "latitude": 10.3883774,
    "longitude": -83.8582366,
    "type": "Auto parts store"
  },
  {
    "name": "Mini Super Chico",
    "address_1": "97PM+87M",
    "address_2": "Limón Province, Roxana",
    "website": "",
    "rating": 3.9,
    "reviews_count": 76,
    "thumbnail": "https://lh5.googleusercontent.com/p/AF1QipPfqNYwn6tBqoat6bU7MP4BFY60xoGUzI8sJkC7",
    "latitude": 10.3858498,
    "longitude": -83.7168391,
    "type": "Supermarket"
  },
  {
    "name": "Agrícola San Alberto",
    "address_1": "86FF+F44",
    "address_2": "Limón, Pococí",
    "website": "",
    "rating": 4.7,
    "reviews_count": 3,
    "thumbnail": "",
    "latitude": 10.3236363,
    "longitude": -83.7771852,
    "type": "Grocery store"
  },
  {
    "name": "Concentrados San Antonio",
    "address_1": "70205 Formosa, Cariari, Pococí, Limón Limon Cariari",
    "address_2": 70205,
    "website": "",
    "rating": 5,
    "reviews_count": 2,
    "thumbnail": "https://lh5.googleusercontent.com/p/AF1QipM7dI9EWBQNF-B3k0k0lV0gR_q4fMqKpKAMDT79",
    "latitude": 10.3650233,
    "longitude": -83.7503623,
    "type": "Pet supply store"
  },
  {
    "name": "Tienda Diamant`S CR",
    "address_1": "",
    "address_2": "",
    "website": "",
    "rating": "",
    "reviews_count": "",
    "thumbnail": "https://lh5.googleusercontent.com/p/AF1QipOCS5OJSsris_9762DD5-OpQ6XTp99QHr6WpdI_",
    "latitude": 10.2096311,
    "longitude": -83.8499528,
    "type": "Clothing store"
  },
  {
    "name": "Almacen La Milagrosa Cariari",
    "address_1": "9758+Q4Q",
    "address_2": "Cariari, Limón, Pococí frente del banco de",
    "website": "",
    "rating": "",
    "reviews_count": "",
    "thumbnail": "",
    "latitude": 10.3594677,
    "longitude": -83.7346528,
    "type": "Clothing store"
  },
  {
    "name": "La Paila Finca Agroecológica",
    "address_1": "Rita, Las Colinas, 1.3 kilómetros al norte del Puente sobre el Rio La Suerte Limón",
    "address_2": "Pococí",
    "website": "",
    "rating": 5,
    "reviews_count": 1,
    "thumbnail": "",
    "latitude": 10.4999707,
    "longitude": -83.7097312,
    "type": "Store"
  },
  {
    "name": "Tienda María José Cariari #1",
    "address_1": "75 m Norte Delegación Policial",
    "address_2": "Limón",
    "website": "facebook.com",
    "rating": "",
    "reviews_count": "",
    "thumbnail": "https://lh5.googleusercontent.com/p/AF1QipOO20Wc7wVgisrxShd4Oi_W8nvjsNVdkAcnMqkV",
    "latitude": 10.3625368,
    "longitude": -83.7336528,
    "type": "Clothing store"
  },
  {
    "name": "Tienda Infantil Paso A Paso",
    "address_1": "Guápiles, Pococí, Limón Limón",
    "address_2": "Guápiles",
    "website": "pasoapasocr.com",
    "rating": 4.9,
    "reviews_count": 16,
    "thumbnail": "https://lh5.googleusercontent.com/p/AF1QipMiCkL3A2U6k2LPSHuM5BFJ81LeH3JdvpvXhLzu",
    "latitude": 10.2149279,
    "longitude": -83.790657,
    "type": "Children's clothing store"
  },
  {
    "name": "Invaes, Cortinas Del Caribe",
    "address_1": "70201 Limón Pococí",
    "address_2": 70201,
    "website": "",
    "rating": 5,
    "reviews_count": 1,
    "thumbnail": "https://lh5.googleusercontent.com/p/AF1QipNt8L5MflmrQN9OGt2XZFGaDmcqQseARPoZa2fv",
    "latitude": 10.2228109,
    "longitude": -83.7844446,
    "type": "Air conditioning store"
  },
  {
    "name": "Super Maná",
    "address_1": "70203 Limon Jardín",
    "address_2": 70203,
    "website": "",
    "rating": 5,
    "reviews_count": 1,
    "thumbnail": "https://lh5.googleusercontent.com/p/AF1QipPf61TzZfQ46jkB6ogohtiCpJUaXvcKnoSd1kzs",
    "latitude": 10.3947648,
    "longitude": -83.77851,
    "type": "Supermarket"
  },
  {
    "name": "Cokos Store",
    "address_1": "9768+CF7, Frente al Banco Nacional, de cariari",
    "address_2": "Limón, Cariari",
    "website": "",
    "rating": 5,
    "reviews_count": 1,
    "thumbnail": "https://lh5.googleusercontent.com/p/AF1QipNxA_VAO4yaYC_rfkGeSLyh2s-cpWOoFmVuOVUr",
    "latitude": 10.3610318,
    "longitude": -83.7338369,
    "type": "Clothing store"
  },
  {
    "name": "Repuestos Tumoto",
    "address_1": "814, Limón Costa Rica",
    "address_2": "Pococí",
    "website": "",
    "rating": 5,
    "reviews_count": 1,
    "thumbnail": "https://lh5.googleusercontent.com/p/AF1QipO57GlLNQm5iepNQGAy3mv5SR5tggGHeX5CQXLf",
    "latitude": 10.4029363,
    "longitude": -83.6933339,
    "type": "Store"
  },
  {
    "name": "Tienda de Belleza Bewitched",
    "address_1": "",
    "address_2": "",
    "website": "mybewitchedbeauty.com",
    "rating": "",
    "reviews_count": "",
    "thumbnail": "https://lh5.googleusercontent.com/p/AF1QipN2HKm--5hBgyv9ynpwFK2mb9E4p6ASWbW3sbIV",
    "latitude": 8.3578905,
    "longitude": -84.80865,
    "type": "General store"
  },
  {
    "name": "Nissi Jeans Costa Rica",
    "address_1": "75 Sur De La MUNICIPALIDAD DE POCOCI",
    "address_2": "Limón, Guápiles",
    "website": "facebook.com",
    "rating": 5,
    "reviews_count": 5,
    "thumbnail": "https://lh5.googleusercontent.com/p/AF1QipP7eTEYRxbWAGooEj4I_60BUtEqtv3XAzu9Ddm4",
    "latitude": 10.203639,
    "longitude": -83.7882408,
    "type": "Clothing store"
  },
  {
    "name": "Decavisa Pococí",
    "address_1": "Blvr. de Guápiles",
    "address_2": "Limón, Guápiles",
    "website": "decavisa.com",
    "rating": 4.1,
    "reviews_count": 574,
    "thumbnail": "https://lh5.googleusercontent.com/p/AF1QipN0FlGZAWr3RqHeSU2qbZ90vciVt2KIf0RkhamP",
    "latitude": 10.2127393,
    "longitude": -83.7851903,
    "type": "Home goods store"
  },
  {
    "name": "Abastecedor La Primavera",
    "address_1": "100 metros norte salón comunal La primavera Limón Pococi, Primavera",
    "address_2": 70203,
    "website": "",
    "rating": 3,
    "reviews_count": 1,
    "thumbnail": "",
    "latitude": 10.4290782,
    "longitude": -83.7816499,
    "type": "Supermarket"
  },
  {
    "name": "Mas X Menos Guápiles",
    "address_1": 149,
    "address_2": "Limón, Guápiles",
    "website": "masxmenos.cr",
    "rating": 4.3,
    "reviews_count": 1397,
    "thumbnail": "https://lh5.googleusercontent.com/p/AF1QipM40NZ5AUylwX2EgftZIVii1BLRN90Ens25P8kB",
    "latitude": 10.213435,
    "longitude": -83.7845955,
    "type": "Supermarket"
  },
  {
    "name": "Tierra Verde Costa Rica",
    "address_1": "86QR+QHW",
    "address_2": "Unnamed Road Limón",
    "website": "tierraverdecr.com",
    "rating": 4.2,
    "reviews_count": 19,
    "thumbnail": "https://lh5.googleusercontent.com/p/AF1QipPrkrdw9VyoRzDJIvVuiz747ktnRTEChWR4sRrS",
    "latitude": 10.3394754,
    "longitude": -83.7585602,
    "type": "Farm shop"
  },
  {
    "name": "Tienda TOLKIEN Hobby Store.",
    "address_1": "6676+H89",
    "address_2": "Av. Central",
    "website": "facebook.com",
    "rating": 3.8,
    "reviews_count": 17,
    "thumbnail": "https://lh5.googleusercontent.com/p/AF1QipNFl2M0ir_qH0gCPGree5WlFdvMYinNFmtgt7Cz",
    "latitude": 10.2139229,
    "longitude": -83.7891425,
    "type": "Video game store"
  },
  {
    "name": "Libreria, Pasamanería y Bazar Atlantis",
    "address_1": "Las Palmitas, La Rita, Diagonal a la plaza de deportes Limón Pococí",
    "address_2": 70203,
    "website": "",
    "rating": "",
    "reviews_count": "",
    "thumbnail": "https://lh5.googleusercontent.com/p/AF1QipO156g2Vo1QZ9jrCMPd9E1sFX4IOhmr_3ff4Xyf",
    "latitude": 10.4546177,
    "longitude": -83.7047795,
    "type": "Book store"
  },
  {
    "name": "Supermercado y Distribuidora Aragon",
    "address_1": "70205 Limon Pococi",
    "address_2": 70205,
    "website": "",
    "rating": "",
    "reviews_count": "",
    "thumbnail": "",
    "latitude": 10.4230878,
    "longitude": -83.7199136,
    "type": "Supermarket"
  },
  {
    "name": "Frutas y verduras Mendez",
    "address_1": "247, Limón",
    "address_2": "Pococí",
    "website": "",
    "rating": 3.7,
    "reviews_count": 3,
    "thumbnail": "https://lh5.googleusercontent.com/p/AF1QipOybBB6hn6-rH4BguHbg4kkQjdxlAKeeRfY6TtJ",
    "latitude": 10.3862135,
    "longitude": -83.7169227,
    "type": "Grocery store"
  },
  {
    "name": "Satellite",
    "address_1": "Av. 7",
    "address_2": "Barrio Belén, Limón Province, Guapiles",
    "website": "satellitecr.com",
    "rating": 4.8,
    "reviews_count": 196,
    "thumbnail": "https://lh5.googleusercontent.com/p/AF1QipM6g12cELZnUEMCvvN9p0Id7hj2NUnWC1F1gnZV",
    "latitude": 10.2153684,
    "longitude": -83.7849395,
    "type": "Computer store"
  },
  {
    "name": "Marela MiniMarket",
    "address_1": "Guápiles, 300m norte de mega super, Santa Clara Limón Pococi",
    "address_2": 70201,
    "website": "marela-minimarket.negocio.site",
    "rating": "",
    "reviews_count": "",
    "thumbnail": "",
    "latitude": 10.2082317,
    "longitude": -83.7814205,
    "type": "Supermarket"
  },
  {
    "name": "Fishing Tackle 506 Mar y Rio",
    "address_1": "Calle Estándar 249",
    "address_2": "Limón Province, Guapiles",
    "website": "",
    "rating": 5,
    "reviews_count": 1,
    "thumbnail": "https://lh5.googleusercontent.com/p/AF1QipOQYXW4gbceJQlIeIvLirp6-K6bqn2ZctnwJlTw",
    "latitude": 10.2405201,
    "longitude": -83.7950753,
    "type": "Fishing store"
  },
  {
    "name": "motos freedom",
    "address_1": "6649+R9G",
    "address_2": "Limón Province, Guapiles",
    "website": "",
    "rating": 3.9,
    "reviews_count": 16,
    "thumbnail": "",
    "latitude": 10.2070746,
    "longitude": -83.7815505,
    "type": "Supermarket"
  },
  {
    "name": "Almacén el Mejor Precio",
    "address_1": 247,
    "address_2": "Limón, Pococí",
    "website": "",
    "rating": 4.3,
    "reviews_count": 353,
    "thumbnail": "https://lh5.googleusercontent.com/p/AF1QipOM8uL5FjO0SIt91XyFflekVJKFUSV6ltYeYV8k",
    "latitude": 10.363118,
    "longitude": -83.7337244,
    "type": "Tool store"
  },
  {
    "name": "Super San La Lucha",
    "address_1": "70207 Limon pococi",
    "address_2": 70207,
    "website": "",
    "rating": 5,
    "reviews_count": 3,
    "thumbnail": "https://lh5.googleusercontent.com/p/AF1QipM7YWURP8IIitvisXWL-COI8C0DbsSgtbn_NW7y",
    "latitude": 10.2448743,
    "longitude": -83.804232,
    "type": "Supermarket"
  },
  {
    "name": "Fin Del Mundo Store",
    "address_1": "6668+Q57",
    "address_2": "Barrio Pinares, Limón, Guápiles",
    "website": "",
    "rating": 3.5,
    "reviews_count": 2,
    "thumbnail": "",
    "latitude": 10.2119045,
    "longitude": -83.784569,
    "type": "Toy store"
  },
  {
    "name": "Pulpería La Palabra de Dios",
    "address_1": "247, Limón",
    "address_2": "Pococí",
    "website": "",
    "rating": 4.4,
    "reviews_count": 5,
    "thumbnail": "https://lh5.googleusercontent.com/p/AF1QipPifq3FhoZMg98LiY92Gv7W5-9ZeWYuyOYswNDZ",
    "latitude": 10.3813262,
    "longitude": -83.7222636,
    "type": "Convenience store"
  },
  {
    "name": "Super y licorera La Expo Pococí",
    "address_1": "7021 Continuo al hotel suerre",
    "address_2": "Limón, Guápiles",
    "website": "",
    "rating": 4.9,
    "reviews_count": 7,
    "thumbnail": "https://lh5.googleusercontent.com/p/AF1QipO2gY1KyDfUU6GG7uqxKCdsDcRZydjjUr7B6bt_",
    "latitude": 10.2196561,
    "longitude": -83.780645,
    "type": "Supermarket"
  },
  {
    "name": "Quesos Pococi",
    "address_1": 149,
    "address_2": "Limón, Guápiles",
    "website": "",
    "rating": 1,
    "reviews_count": 1,
    "thumbnail": "https://lh5.googleusercontent.com/p/AF1QipPm8QPKenLizB3Dtt2k6jjsg4WsaLX76cJyddID",
    "latitude": 10.212899,
    "longitude": -83.7892733,
    "type": "Cheese shop"
  },
  {
    "name": "ciclo alfaro",
    "address_1": "C77H+XC6",
    "address_2": 247,
    "website": "",
    "rating": 4.7,
    "reviews_count": 15,
    "thumbnail": "https://lh5.googleusercontent.com/p/AF1QipOHHOoaWPL3QWzAAShETG4MhD9cYXPQUa2zPAU-",
    "latitude": 10.4149052,
    "longitude": -83.7214965,
    "type": "Bicycle store"
  },
  {
    "name": "Emotion Guápiles",
    "address_1": "Frente Universidad Latina, Limón Guápiles, Pococí, Limón Limón Guapiles",
    "address_2": 70201,
    "website": "",
    "rating": 4.3,
    "reviews_count": 38,
    "thumbnail": "https://lh5.googleusercontent.com/p/AF1QipNT0padyooOtYeHBGdBgFAbjy3QXVn7Vl8oMkz-",
    "latitude": 10.2108615,
    "longitude": -83.7874098,
    "type": "Tire shop"
  },
  {
    "name": "CENTRO DE CARNES GETSEMANI",
    "address_1": "6665+7X7",
    "address_2": "Limón Province, Guapiles",
    "website": "",
    "rating": 5,
    "reviews_count": 1,
    "thumbnail": "",
    "latitude": 10.2106536,
    "longitude": -83.7900791,
    "type": "Grocery store"
  },
  {
    "name": "Ferreteria El Rotulo",
    "address_1": "75 Este Bar El Almendro",
    "address_2": 249,
    "website": "",
    "rating": 3.1,
    "reviews_count": 13,
    "thumbnail": "https://lh5.googleusercontent.com/p/AF1QipOBFHmEKuOH10tYr8GYWI2USGEWU5qyTVK52hCt",
    "latitude": 10.4096506,
    "longitude": -83.757298,
    "type": "Hardware store"
  },
  {
    "name": "Zapateria Style Guapiles",
    "address_1": "6685+8HG",
    "address_2": "Av. 5",
    "website": "",
    "rating": 4.1,
    "reviews_count": 175,
    "thumbnail": "https://lh5.googleusercontent.com/p/AF1QipOmc75620vQaSVM0DbOcBK9nh1JNcOdyMO5C0f_",
    "latitude": 10.2158157,
    "longitude": -83.7910416,
    "type": "Clothing store"
  },
  {
    "name": "BEEllegas HONEY",
    "address_1": "Cariari. Astua pirie Limón Cariari",
    "address_2": 70205,
    "website": "",
    "rating": "",
    "reviews_count": "",
    "thumbnail": "",
    "latitude": 10.3438373,
    "longitude": -83.7392725,
    "type": "Beauty supply store"
  },
  {
    "name": "GuapilesSport Center",
    "address_1": "6676+3C9",
    "address_2": "Limón Province, Guapiles",
    "website": "",
    "rating": 4.6,
    "reviews_count": 11,
    "thumbnail": "https://lh5.googleusercontent.com/p/AF1QipMNEd8rrTXZWDGYkgn-MsxaJCvzmM8KkpPHuED6",
    "latitude": 10.2126525,
    "longitude": -83.7888783,
    "type": "Store"
  },
  {
    "name": "Cumbre Sport - Tienda De Productos Deportivos Y Aventura",
    "address_1": "C. 6",
    "address_2": "Limón Province, Guapiles",
    "website": "cumbresport.com",
    "rating": 5,
    "reviews_count": 1,
    "thumbnail": "https://lh5.googleusercontent.com/p/AF1QipOWoDxtDQJwwZ7m67S51Sxr2NAiu2aM1MhWWGuj",
    "latitude": 10.2146139,
    "longitude": -83.7930013,
    "type": "Sports nutrition store"
  },
  {
    "name": "Tienda Aladino | El sultan",
    "address_1": "Limón Pococí Cariari",
    "address_2": 70205,
    "website": "aladino-cr.com",
    "rating": "",
    "reviews_count": "",
    "thumbnail": "https://lh5.googleusercontent.com/p/AF1QipO0gR2hYiTfKxCMkmBM4cgPZvrwGFooOQUEPyxP",
    "latitude": 10.3620123,
    "longitude": -83.7338522,
    "type": "Youth clothing store"
  },
  {
    "name": "Pulpería Imperial",
    "address_1": "814, Limón",
    "address_2": "Limón, Pococí",
    "website": "",
    "rating": 4.2,
    "reviews_count": 5,
    "thumbnail": "https://lh5.googleusercontent.com/p/AF1QipPwnsQjXt_EHG53z6FNS3Bi292mJ81IZFpnosI5",
    "latitude": 10.405159,
    "longitude": -83.6942002,
    "type": "Supermarket"
  },
  {
    "name": "KINGS COMPUTERS",
    "address_1": "Avenida 7, 100 metros Oeste del I.N.S",
    "address_2": "Limón, Guápiles",
    "website": "kc.cr",
    "rating": 4.3,
    "reviews_count": 253,
    "thumbnail": "https://lh5.googleusercontent.com/p/AF1QipOqD8EZCPPxn6CJcilY64iY_eoS7vphdbTq2JDt",
    "latitude": 10.215397,
    "longitude": -83.78424,
    "type": "Computer store"
  },
  {
    "name": "Super Intima Guapiles #2",
    "address_1": "Frente al Ministerio de Salud de Guápiles Limón Pococí",
    "address_2": 70201,
    "website": "",
    "rating": 5,
    "reviews_count": 1,
    "thumbnail": "",
    "latitude": 10.2152864,
    "longitude": -83.7898941,
    "type": "Underwear store"
  },
  {
    "name": "Importadora Monge",
    "address_1": "3MM5+M8W",
    "address_2": "Barrio La Zonita, Limón Province, Batán",
    "website": "",
    "rating": 3.4,
    "reviews_count": 58,
    "thumbnail": "https://lh5.googleusercontent.com/p/AF1QipOWP8xZ0lt1Tdy1l1FRqYnqk6Mo6PT6iSfxExYt",
    "latitude": 10.0842314,
    "longitude": -83.3416739,
    "type": "Store"
  },
  {
    "name": "Concentrados Mega",
    "address_1": "Palmitas frente a la plaza de deportes, Concentrados Mega Limón Cariari",
    "address_2": 70205,
    "website": "concentrados-mega.negocio.site",
    "rating": 4.2,
    "reviews_count": 5,
    "thumbnail": "https://lh5.googleusercontent.com/p/AF1QipMrsOzGRGg0T-0fxYs12Ks-veYOUEICAbVK0-DV",
    "latitude": 10.4543407,
    "longitude": -83.7042532,
    "type": "Animal feed store"
  },
  {
    "name": "Super Aeropuerto",
    "address_1": "70201 Limón",
    "address_2": "Pococí",
    "website": "",
    "rating": "",
    "reviews_count": "",
    "thumbnail": "",
    "latitude": 10.4230878,
    "longitude": -83.7199136,
    "type": "Discount supermarket"
  },
  {
    "name": "TIENDA METROKILOS CARIARI",
    "address_1": "Limón, Pococí",
    "address_2": "Costa Rica",
    "website": "",
    "rating": 5,
    "reviews_count": 1,
    "thumbnail": "https://lh5.googleusercontent.com/p/AF1QipOlVMfWpqHA_oBer7SDwJv04a5gBbW08e6C-OkB",
    "latitude": 10.3606798,
    "longitude": -83.733348,
    "type": "Fabric store"
  },
  {
    "name": "Aeropost",
    "address_1": "50 sur de Discoteca Lux",
    "address_2": "C. 5",
    "website": "aeropost.com",
    "rating": 4.4,
    "reviews_count": 54,
    "thumbnail": "https://lh5.googleusercontent.com/p/AF1QipOrH9b6Kckf9M5BV1fT1Zwz40sRdF4ktBBVJnwU",
    "latitude": 10.2129424,
    "longitude": -83.7867865,
    "type": "Store"
  },
  {
    "name": "Almacén Hermanos Jimenez",
    "address_1": "9765+GX7",
    "address_2": "Limón Province, Pococí",
    "website": "",
    "rating": 4,
    "reviews_count": 2,
    "thumbnail": "https://lh5.googleusercontent.com/p/AF1QipN-RNp56nSmtcvlFK40Pw9FWXSd-GJgjhhLMm0e",
    "latitude": 10.3612757,
    "longitude": -83.7400826,
    "type": "Hardware store"
  },
  {
    "name": "Finca Integral Génesis",
    "address_1": "F57X+622",
    "address_2": "Limón, Pococí",
    "website": "",
    "rating": 4.5,
    "reviews_count": 6,
    "thumbnail": "https://lh5.googleusercontent.com/p/AF1QipM9ixm7Jl_XQhxRvmORPLe49HWFp8XrtzwKqr2o",
    "latitude": 10.4630169,
    "longitude": -83.8024864,
    "type": "Farm shop"
  },
  {
    "name": "Almacén 3R",
    "address_1": "6677+8HX",
    "address_2": "Barrio Belén, Limón, Guápiles",
    "website": "almacen3r.com",
    "rating": 4.4,
    "reviews_count": 721,
    "thumbnail": "https://lh5.googleusercontent.com/p/AF1QipPTOFO8YECG9SbNETh7FyogS8eewzPL1Q-HY0FW",
    "latitude": 10.2133702,
    "longitude": -83.7860191,
    "type": "Hardware store"
  },
  {
    "name": "Sublimación 0026 bordado oasis",
    "address_1": "de",
    "address_2": "Barrio Pueblo Nuevo",
    "website": "facebook.com",
    "rating": 5,
    "reviews_count": 2,
    "thumbnail": "https://lh5.googleusercontent.com/p/AF1QipMiQQmT2CfnICWxRJ5lUu4xdIAHhfT-4GGzzomO",
    "latitude": 10.3342369,
    "longitude": -83.7455434,
    "type": "Custom t-shirt store"
  },
  {
    "name": "Super La Central",
    "address_1": "247, Limón, Pococí",
    "address_2": "Costa Rica",
    "website": "facebook.com",
    "rating": 4.4,
    "reviews_count": 57,
    "thumbnail": "https://lh5.googleusercontent.com/p/AF1QipOgZ2X6hvcMeGnS5_SUjqhCtY6mbifeO5DHciwR",
    "latitude": 10.4540596,
    "longitude": -83.705051,
    "type": "Supermarket"
  },
  {
    "name": "Verduleria hns Fernández",
    "address_1": "100 mrrs este delegacion fuerza publica Limon",
    "address_2": "Costa Rica",
    "website": "",
    "rating": "",
    "reviews_count": "",
    "thumbnail": "",
    "latitude": 10.3607994,
    "longitude": -83.7325859,
    "type": "Fruit and vegetable store"
  },
  {
    "name": "Repuestos Panatra",
    "address_1": "6676+678",
    "address_2": "Limón Province, Guapiles",
    "website": "",
    "rating": 4.4,
    "reviews_count": 5,
    "thumbnail": "",
    "latitude": 10.2130354,
    "longitude": -83.789302,
    "type": "Car accessories store"
  },
  {
    "name": "Abastecedor Elva",
    "address_1": "814, Limón, Pococí",
    "address_2": "Costa Rica",
    "website": "",
    "rating": 5,
    "reviews_count": 2,
    "thumbnail": "",
    "latitude": 10.4544615,
    "longitude": -83.7043512,
    "type": "Supermarket"
  },
  {
    "name": "Vane's Art",
    "address_1": "Frente ala empacadora caribe Guapiles Cariari",
    "address_2": 70250,
    "website": "",
    "rating": 5,
    "reviews_count": 1,
    "thumbnail": "https://lh5.googleusercontent.com/p/AF1QipPRls4P4poS-CwflFY78lIBpFgVIypLdJhB5Fpo",
    "latitude": 10.3676265,
    "longitude": -83.7509872,
    "type": "Body piercing shop"
  },
  {
    "name": "Gollo Cariari Norte",
    "address_1": "9778+279",
    "address_2": 247,
    "website": "",
    "rating": "",
    "reviews_count": "",
    "thumbnail": "https://lh5.googleusercontent.com/p/AF1QipP28TqYahZoyxyXJyHpgT14OD5p4nGQH6IR4FZj",
    "latitude": 10.3625316,
    "longitude": -83.7342642,
    "type": "Appliance store"
  },
  {
    "name": "Tienda cleveland cariari",
    "address_1": "9768+68J, Escuela Primaria de Cariari",
    "address_2": "Limón, Pococí",
    "website": "",
    "rating": "",
    "reviews_count": "",
    "thumbnail": "https://lh5.googleusercontent.com/p/AF1QipP9RMSsCehrUtiIZXmnlHLQjSH1gv3pY4ogdjo",
    "latitude": 10.3605517,
    "longitude": -83.7342296,
    "type": "General store"
  },
  {
    "name": "SUPER GKM",
    "address_1": "Ticabán finca , frente plaza de deportes Limón Pococí",
    "address_2": 70203,
    "website": "",
    "rating": 4.4,
    "reviews_count": 78,
    "thumbnail": "https://lh5.googleusercontent.com/p/AF1QipOCCbVoV-_e-ORCZZwHVbXrxfMGOipFcuvSIuuv",
    "latitude": 10.4034056,
    "longitude": -83.8316044,
    "type": "Supermarket"
  },
  {
    "name": "AutoRepuestos Willy #1",
    "address_1": "247 Limón",
    "address_2": "Limón, Pococí",
    "website": "",
    "rating": 4.7,
    "reviews_count": 3,
    "thumbnail": "https://lh5.googleusercontent.com/p/AF1QipMjCJeahs_zrXo4YocqflQa7IJKlG5L47iISxqo",
    "latitude": 10.3641942,
    "longitude": -83.732624,
    "type": "Auto parts store"
  },
  {
    "name": "Tienda María José Cariari #3",
    "address_1": "100 m Norte Delegación Policial, Pococí",
    "address_2": "Limón",
    "website": "facebook.com",
    "rating": "",
    "reviews_count": "",
    "thumbnail": "https://lh5.googleusercontent.com/p/AF1QipOLZPIcpB1AP1-bFymFa3dZzU0RbYmtuomkJQn4",
    "latitude": 10.362652,
    "longitude": -83.7337948,
    "type": "Clothing store"
  },
  {
    "name": "Repuestos Fakar",
    "address_1": "6622+RM4",
    "address_2": "Limón Province, Guapiles",
    "website": "",
    "rating": 4.4,
    "reviews_count": 127,
    "thumbnail": "https://lh5.googleusercontent.com/p/AF1QipNn6OmxXMVR_gWEV5fm6XQYQXaeieH9ue3I8pg_",
    "latitude": 10.2020082,
    "longitude": -83.7983014,
    "type": "Store"
  },
  {
    "name": "Verdulería Ramiréz",
    "address_1": "249, la rita Limón",
    "address_2": "Pococí",
    "website": "",
    "rating": 4.8,
    "reviews_count": 10,
    "thumbnail": "https://lh5.googleusercontent.com/p/AF1QipO5gU5opRlF2RXgeF9E8wMCn3HNKZRAfGJPfFek",
    "latitude": 10.3937076,
    "longitude": -83.8022312,
    "type": "Greengrocer"
  },
  {
    "name": "Terminal Guapiles",
    "address_1": "6636+4MH",
    "address_2": "Limón Province, Guapiles",
    "website": "",
    "rating": 3.9,
    "reviews_count": 1951,
    "thumbnail": "https://lh5.googleusercontent.com/p/AF1QipN_OSt-_d30oSTZW3vZuXAgn_TE03_RLnDbljRX",
    "latitude": 10.202813,
    "longitude": -83.7882744,
    "type": "Supermarket"
  },
  {
    "name": "Artelec Pococí",
    "address_1": "25 metros Oeste de Perimercados",
    "address_2": "Limón, Guápiles",
    "website": "artelec.cr",
    "rating": 3.9,
    "reviews_count": 27,
    "thumbnail": "https://lh5.googleusercontent.com/p/AF1QipMymS0rPPFvCyjGxt7lvjlfh5YgeSybdPd2GbIV",
    "latitude": 10.2135824,
    "longitude": -83.7874677,
    "type": "Appliance store"
  },
  {
    "name": "Minisuper y Licorera Hermanos Aragón",
    "address_1": "9768+CXX",
    "address_2": "Limón, Pococí",
    "website": "",
    "rating": 4.6,
    "reviews_count": 19,
    "thumbnail": "https://lh5.googleusercontent.com/p/AF1QipNobHNuhtjEfZ6zQhwO-MZtIFV1Uu5hXM4Qe_GH",
    "latitude": 10.3611125,
    "longitude": -83.732501,
    "type": "Wine store"
  },
  {
    "name": "Super y Panaderia Madrigal",
    "address_1": "87Q6+QRP",
    "address_2": 247,
    "website": "",
    "rating": 4.4,
    "reviews_count": 18,
    "thumbnail": "",
    "latitude": 10.3394646,
    "longitude": -83.7379327,
    "type": "Supermarket"
  },
  {
    "name": "Tiendita el Mexicano en Costa Rica",
    "address_1": "Barrio la Riviera lote D3 Limón Cariari",
    "address_2": 70205,
    "website": "m.facebook.com",
    "rating": "",
    "reviews_count": "",
    "thumbnail": "https://lh5.googleusercontent.com/p/AF1QipM6jNe1NwrgLl71MNSf3v5I-ibPqKNCs0rzr_kl",
    "latitude": 10.3525438,
    "longitude": -83.7165966,
    "type": "Ice cream shop"
  },
  {
    "name": "Palí La Rita",
    "address_1": "247, Limón, Pococí",
    "address_2": "Costa Rica",
    "website": "",
    "rating": 4.1,
    "reviews_count": 275,
    "thumbnail": "https://lh5.googleusercontent.com/p/AF1QipM4ev9NMLTNwcyDjbBpiGfZg2uocZzkdXjNoU09",
    "latitude": 10.2705419,
    "longitude": -83.775022,
    "type": "Supermarket"
  },
  {
    "name": "Gollo Cariari Sur",
    "address_1": "Costado este del servicentro uno en",
    "address_2": "Limón",
    "website": "gollotienda.com",
    "rating": 4.3,
    "reviews_count": 83,
    "thumbnail": "https://lh5.googleusercontent.com/p/AF1QipOxaw_P_pFH7pCkEJ_4dy21V0jnlEa1uHAa-BU-",
    "latitude": 10.3583993,
    "longitude": -83.7347002,
    "type": "Appliance store"
  },
  {
    "name": "Gollo Cariari Centro",
    "address_1": "50 Norte de la fuerza publica",
    "address_2": "Limón",
    "website": "gollotienda.com",
    "rating": 1,
    "reviews_count": 1,
    "thumbnail": "https://lh5.googleusercontent.com/p/AF1QipOOZgkHS22MMdm8pD-27aUp6xdFp7pcmPir6kJ0",
    "latitude": 10.3599463,
    "longitude": -83.7336932,
    "type": "Appliance store"
  },
  {
    "name": "AnaGoH cose",
    "address_1": "506 Limón Cariari",
    "address_2": 70205,
    "website": "",
    "rating": "",
    "reviews_count": "",
    "thumbnail": "https://lh5.googleusercontent.com/p/AF1QipMdRR5qX9xTPRuEqOK5Irdb5pPaRq6CJ-Zj94_5",
    "latitude": 10.3407046,
    "longitude": -83.7361687,
    "type": "Needlework shop"
  },
  {
    "name": "Colono Construcción Ticabán",
    "address_1": "Ticabán, La Rita, contiguo a pista de aterrizaje Limón Ticabán",
    "address_2": 70203,
    "website": "colonoconstruccion.com",
    "rating": 3.9,
    "reviews_count": 57,
    "thumbnail": "https://lh5.googleusercontent.com/p/AF1QipMZtn_9BUKajk_CClBG0VeRLDgsUxv-_cMCeDQ",
    "latitude": 10.3977982,
    "longitude": -83.8295209,
    "type": "Building materials store"
  },
  {
    "name": "El Mercadito de Cariari",
    "address_1": "1 km al norte del Banco Nacional contigo a complejo caraluna Limón",
    "address_2": "Pococí",
    "website": "facebook.com",
    "rating": 4.1,
    "reviews_count": 178,
    "thumbnail": "https://lh5.googleusercontent.com/p/AF1QipPlBlNvjTx482GLoc5KH61MdeZDHujZuhZugjLd",
    "latitude": 10.3671798,
    "longitude": -83.7313385,
    "type": "Supermarket"
  },
  {
    "name": "Jadi Market And Liquor Store",
    "address_1": "Los Lirios Frente al Parque Limon Cariari",
    "address_2": 70205,
    "website": "facebook.com",
    "rating": 4.1,
    "reviews_count": 8,
    "thumbnail": "https://lh5.googleusercontent.com/p/AF1QipMFC3ULEGhykDuG7fucNQMEnmUDQ4k7a2erREom",
    "latitude": 10.3777006,
    "longitude": -83.7584845,
    "type": "Supermarket"
  },
  {
    "name": "Palí",
    "address_1": "Limón, Guápiles",
    "address_2": "Costa Rica",
    "website": "maxipali.co.cr",
    "rating": 3.9,
    "reviews_count": 748,
    "thumbnail": "https://lh5.googleusercontent.com/p/AF1QipMqwz7SFNrfGoRcDynUhODee86PP0azcz-9HU_T",
    "latitude": 10.2163022,
    "longitude": -83.7872199,
    "type": "Supermarket"
  },
  {
    "name": "Golden Days Tattoo 0026 Piercing",
    "address_1": "frente al CECUDI",
    "address_2": "Av. 11",
    "website": "goldendayscr.com",
    "rating": 4.8,
    "reviews_count": 70,
    "thumbnail": "https://lh5.googleusercontent.com/p/AF1QipOrxrNCgdTJsn2Xr7Tc2NisE-XaJrGv8QNyPRIc",
    "latitude": 10.2179225,
    "longitude": -83.791201,
    "type": "Store"
  },
  {
    "name": "Fervasa Cariari",
    "address_1": "9778+HV9",
    "address_2": 247,
    "website": "",
    "rating": 5,
    "reviews_count": 3,
    "thumbnail": "https://lh5.googleusercontent.com/p/AF1QipOyKtlDXhTBPyETg_-4ENdQH-3hyxBLsdx-Ip_w",
    "latitude": 10.3639063,
    "longitude": -83.7327681,
    "type": "Store"
  },
  {
    "name": "Ciclo Chacón",
    "address_1": "200 metros oeste y 50 norte de la Iglesia Catolica",
    "address_2": "Limón Province, Guapiles",
    "website": "",
    "rating": 4.3,
    "reviews_count": 51,
    "thumbnail": "https://lh5.googleusercontent.com/p/AF1QipN9hgVF4_k35nlbPJxerXpkkez1R1BaJf_cNaf3",
    "latitude": 10.2147144,
    "longitude": -83.7918713,
    "type": "Bicycle store"
  },
  {
    "name": "SUPER DRAGON CARIARI",
    "address_1": "9778+5H3",
    "address_2": 247,
    "website": "",
    "rating": 4.3,
    "reviews_count": 12,
    "thumbnail": "",
    "latitude": 10.3628756,
    "longitude": -83.73359,
    "type": "Supermarket"
  },
  {
    "name": "Carnicería Sinaí",
    "address_1": "bazar rossy",
    "address_2": "Guapiles Pococi,la Colonia San Rafael contiguo a",
    "website": "",
    "rating": 3.9,
    "reviews_count": 10,
    "thumbnail": "https://lh5.googleusercontent.com/p/AF1QipMnUklxm5eO3nBJVODpv5ICnigmhOYpjlnKrsJH",
    "latitude": 10.2454307,
    "longitude": -83.7969615,
    "type": "Grocery store"
  },
  {
    "name": "Boutique Hogar",
    "address_1": "Calle 7 avenida 2 Limón",
    "address_2": "Limón, Centro",
    "website": "boutiquehogar.weebly.com",
    "rating": 4.5,
    "reviews_count": 17,
    "thumbnail": "https://lh5.googleusercontent.com/p/AF1QipOQFacp9pUqMDfVcaYvyehTwXX4yM4aF9Ax6APW",
    "latitude": 9.991972,
    "longitude": -83.0318317,
    "type": "Boutique"
  },
  {
    "name": "M Express Cariari",
    "address_1": "70205 Limón Cariari",
    "address_2": 70205,
    "website": "tiendamexpress.com",
    "rating": 4.5,
    "reviews_count": 6,
    "thumbnail": "https://lh5.googleusercontent.com/p/AF1QipOmW_uh9wNGfPRz27Xivk85-gc2vZKP_2koMieO",
    "latitude": 10.3597001,
    "longitude": -83.7345653,
    "type": "Appliance store"
  },
  {
    "name": "Mexpress Cariari#1",
    "address_1": "Contiguo al ferretería el Mejor Precio Limón",
    "address_2": "Costa Rica",
    "website": "tiendamexpress.com",
    "rating": 4.1,
    "reviews_count": 11,
    "thumbnail": "https://lh5.googleusercontent.com/p/AF1QipPhRZMq5kxO0IkFo26ByjH3kvpWO4JpbLDjXrF7",
    "latitude": 10.3631296,
    "longitude": -83.7337551,
    "type": "Store"
  },
  {
    "name": "Aleska Boutique",
    "address_1": "XXV9+8C6",
    "address_2": "Limón Province, Limon",
    "website": "",
    "rating": 4.9,
    "reviews_count": 14,
    "thumbnail": "https://lh5.googleusercontent.com/p/AF1QipPQc6ZqSG6vR94ajMjcGxProJO1-29FgqIVA5aY",
    "latitude": 9.9932956,
    "longitude": -83.0314996,
    "type": "Clothing store"
  },
  {
    "name": "Super Lucky Cariari",
    "address_1": "Limón, Pococí",
    "address_2": 70205,
    "website": "facebook.com",
    "rating": 4.4,
    "reviews_count": 220,
    "thumbnail": "https://lh5.googleusercontent.com/p/AF1QipOtfRkT_ffCgRzIpyxjlCjNjNqGuDUw4XRU1W8o",
    "latitude": 10.3638583,
    "longitude": -83.7333015,
    "type": "Supermarket"
  },
  {
    "name": "Joyeria Guillen",
    "address_1": "70205 Limón Pococí",
    "address_2": 70205,
    "website": "",
    "rating": 4.4,
    "reviews_count": 9,
    "thumbnail": "https://lh5.googleusercontent.com/p/AF1QipPTSXZkhsIaXans0pqZH-nGeSBQR2iQVV8Kh1Ht",
    "latitude": 10.3612036,
    "longitude": -83.7336262,
    "type": "Jewelry store"
  },
  {
    "name": "AUTO REPUESTOS SUPERIOR POCOCI S A",
    "address_1": "100 METROS SUR DEL CEMENTERIO",
    "address_2": "Limón, Guápiles",
    "website": "",
    "rating": 4.1,
    "reviews_count": 44,
    "thumbnail": "https://lh5.googleusercontent.com/p/AF1QipMkrxeI6gVRQJkLtNrDiw_Dwj5hcYO8Ut9rslMX",
    "latitude": 10.2115757,
    "longitude": -83.7960747,
    "type": "Racing car parts store"
  },
  {
    "name": "Panadería Campo Dos",
    "address_1": "814, Limón",
    "address_2": "Pococí",
    "website": "",
    "rating": 3.7,
    "reviews_count": 23,
    "thumbnail": "https://lh5.googleusercontent.com/p/AF1QipOwiHBplJ6MJm2gSShPmhj-CFZK_QDzSD2vWVh3",
    "latitude": 10.4067613,
    "longitude": -83.691567,
    "type": "Bakery"
  },
  {
    "name": "Licorera castillo",
    "address_1": "Limón, Pococí",
    "address_2": "Costa Rica",
    "website": "",
    "rating": 4.9,
    "reviews_count": 9,
    "thumbnail": "https://lh5.googleusercontent.com/p/AF1QipPNSvfoPdSdyfwTVci_Xh-5Boka7YY09fCyPq6q",
    "latitude": 10.3634561,
    "longitude": -83.7334594,
    "type": "State liquor store"
  },
  {
    "name": "Ohlala Cafeteria",
    "address_1": "25 oeste Autorepuestos El Colono",
    "address_2": "Limón, Cariari, Pococi",
    "website": "ohlala-cafeteria.negocio.site",
    "rating": 4.8,
    "reviews_count": 71,
    "thumbnail": "https://lh5.googleusercontent.com/p/AF1QipNH0jaALtijp51df0riXloPDBFYgZVKjKyU8rIq",
    "latitude": 10.3577529,
    "longitude": -83.736675,
    "type": "Coffee shop"
  },
  {
    "name": "Subasta Ganadera",
    "address_1": "66FC+82H",
    "address_2": "Campo Ferial Expo-Pococí, 247",
    "website": "",
    "rating": 4.3,
    "reviews_count": 83,
    "thumbnail": "https://lh5.googleusercontent.com/p/AF1QipMYeXOFIRvEoJGgYwSmot4dIRGxBTQF6FkEJh-6",
    "latitude": 10.2233057,
    "longitude": -83.7799051,
    "type": "Store"
  },
  {
    "name": "Carnicería la Vaca Blanca",
    "address_1": "87Q6+VX6",
    "address_2": "Limón, Pococí, Astua pirie",
    "website": "",
    "rating": 4.6,
    "reviews_count": 5,
    "thumbnail": "https://lh5.googleusercontent.com/p/AF1QipOeJzpzKsetzlveOkeZbQze5GWG3cO2bvlBMb8b",
    "latitude": 10.3396589,
    "longitude": -83.7376208,
    "type": "Butcher shop"
  },
  {
    "name": "Panaderia Servipan",
    "address_1": "150 Norte Terminal de Coopetraca",
    "address_2": 247,
    "website": "facebook.com",
    "rating": 4.3,
    "reviews_count": 99,
    "thumbnail": "https://lh5.googleusercontent.com/p/AF1QipMTMUyKkdM7pbTSwqR0zLxf48VH1DRucmVe4LwE",
    "latitude": 10.3629303,
    "longitude": -83.7337941,
    "type": "Bakery"
  },
  {
    "name": "Panadería y cafetería D'Carito",
    "address_1": "Barrio Nájera 300 metros norte del cementerio primer local a mano izquierda Limón",
    "address_2": "Costa Rica",
    "website": "facebook.com",
    "rating": 5,
    "reviews_count": 1,
    "thumbnail": "https://lh5.googleusercontent.com/p/AF1QipNkBCye9re4f2fQbeJuKhBQUbMUU6NMhHwhNzDz",
    "latitude": 10.3163347,
    "longitude": -83.7615613,
    "type": "Bakery"
  },
  {
    "name": "Ciclo Mavic",
    "address_1": "Frente al Banco Nacional, contiguo al Mundo Mágico, Ruta 247",
    "address_2": "Limón, Cantón de Pococí",
    "website": "ciclomavic.com",
    "rating": 4.8,
    "reviews_count": 23,
    "thumbnail": "https://lh5.googleusercontent.com/p/AF1QipOuQnQnHK-g-Peixb-uF3E0yeVW6AB-u9pvGoOt",
    "latitude": 10.360745,
    "longitude": -83.733824,
    "type": "Bicycle store"
  },
  {
    "name": "Pulpería el Zota CM",
    "address_1": "70201 Limón Sota",
    "address_2": 70201,
    "website": "negocio.site",
    "rating": 5,
    "reviews_count": 2,
    "thumbnail": "https://lh5.googleusercontent.com/p/AF1QipP8DepYVigHcSgJWzQxRadohMpc5Kg7juHK2q5D",
    "latitude": 10.4695408,
    "longitude": -83.7999194,
    "type": "Supermarket"
  },
  {
    "name": "Multi Repuestos Richard",
    "address_1": "66F9+HHH",
    "address_2": "Costado norte Servicentro JSM frente a la Expo Pococi Guapiles Limon CR",
    "website": "guiacaribe.com",
    "rating": 4.5,
    "reviews_count": 10,
    "thumbnail": "https://lh5.googleusercontent.com/p/AF1QipPer_HiaPWrPx_QcGjSmRENoFQm6A5rJSrL8t7H",
    "latitude": 10.2239455,
    "longitude": -83.7810209,
    "type": "Auto parts store"
  },
  {
    "name": "Colono Construcción Cariari El Cruce",
    "address_1": "Entrada al CINDEA, y Palermo Limón Cariari, Pococí",
    "address_2": 70205,
    "website": "colonoconstruccion.com",
    "rating": 4.5,
    "reviews_count": 2,
    "thumbnail": "https://lh5.googleusercontent.com/p/AF1QipM1hH4bDFVjBhb8JJpHDYLa0jZk7oytlr5myhEx",
    "latitude": 10.3686583,
    "longitude": -83.7308687,
    "type": "Tool store"
  },
  {
    "name": "Zapatería Meneses",
    "address_1": "Limón, Pococí",
    "address_2": 70205,
    "website": "zapateriamenesescr.com",
    "rating": 4.3,
    "reviews_count": 56,
    "thumbnail": "https://lh5.googleusercontent.com/p/AF1QipM5cvgC2IErH84ee7atFqn4xyDLHjoFhP43Gw8L",
    "latitude": 10.3626419,
    "longitude": -83.7336099,
    "type": "Shoe store"
  },
  {
    "name": "Palí",
    "address_1": "Unnamed road Limón",
    "address_2": "Limón, Pococí",
    "website": "maxipali.co.cr",
    "rating": 3.9,
    "reviews_count": 385,
    "thumbnail": "https://lh5.googleusercontent.com/p/AF1QipMdj2o_5XIVjDmp-I2LIqUcs34k6rV1UiQs68Ti",
    "latitude": 10.3599395,
    "longitude": -83.7365165,
    "type": "Supermarket"
  },
  {
    "name": "Super San Martin Palmitas.",
    "address_1": 247,
    "address_2": "Limón, Pococí",
    "website": "",
    "rating": 4.2,
    "reviews_count": 78,
    "thumbnail": "https://lh5.googleusercontent.com/p/AF1QipM6e-w-nJuEFHPlnRYOWtRdMxisQxK7auo97SBI",
    "latitude": 10.4531288,
    "longitude": -83.7054425,
    "type": "Supermarket"
  },
  {
    "name": "Plastech Guapiles",
    "address_1": "Ctra. Braulio Carrillo",
    "address_2": "Limón Province, Guapiles",
    "website": "",
    "rating": 4.6,
    "reviews_count": 52,
    "thumbnail": "https://lh5.googleusercontent.com/p/AF1QipNZDhAy3jTxrquymByuZxcnoIp6yz9h1rg9Z51n",
    "latitude": 10.2019315,
    "longitude": -83.7944951,
    "type": "Building materials store"
  },
  {
    "name": "Súper La Favorita",
    "address_1": "75 metros este de la guardia rural de Cariari Limón",
    "address_2": "Pococí",
    "website": "",
    "rating": 4.2,
    "reviews_count": 154,
    "thumbnail": "https://lh5.googleusercontent.com/p/AF1QipM6_8iLDsWt_h4e7U8PSnqQb-HhjuFf6wS-yfWG",
    "latitude": 10.3613446,
    "longitude": -83.7332557,
    "type": "Supermarket"
  },
  {
    "name": "Ferretería y Deposito Cariari S.A.",
    "address_1": "Limón Province, Pococí",
    "address_2": "Costa Rica",
    "website": "sites.google.com",
    "rating": 4.6,
    "reviews_count": 23,
    "thumbnail": "https://lh5.googleusercontent.com/p/AF1QipNQoVYv42XJ7KdJdaPE0eD4gqYCuUjuuhzXJad9",
    "latitude": 10.3666402,
    "longitude": -83.7314576,
    "type": "Home goods store"
  },
  {
    "name": "INS sede Guápiles",
    "address_1": "6688+3Q8",
    "address_2": "Limón Province, Guapiles",
    "website": "",
    "rating": 4.2,
    "reviews_count": 50,
    "thumbnail": "",
    "latitude": 10.2151734,
    "longitude": -83.7830345,
    "type": "Store"
  },
  {
    "name": "Bicitallercr",
    "address_1": "6688+6V4",
    "address_2": "Limón, Guápiles",
    "website": "",
    "rating": 5,
    "reviews_count": 3,
    "thumbnail": "https://lh5.googleusercontent.com/p/AF1QipPdBkRKatcOyll76Cjwox3QM7xpYVIhdjJHlBjq",
    "latitude": 10.215507,
    "longitude": -83.7827837,
    "type": "Bicycle store"
  },
  {
    "name": "Supermercado Maxiconsumo Cariari",
    "address_1": "9758+VJ5",
    "address_2": "Limón Province, Roxana",
    "website": "",
    "rating": 4,
    "reviews_count": 144,
    "thumbnail": "https://lh5.googleusercontent.com/p/AF1QipOIG9Ogu7jfF3nVP2dEWBcKLiGKNi9TTBHAOvyq",
    "latitude": 10.3596372,
    "longitude": -83.7333938,
    "type": "Supermarket"
  },
  {
    "name": "Repuestos Flaco Cariari",
    "address_1": "70205 Limon Cariari De Pococi",
    "address_2": 70205,
    "website": "",
    "rating": 4.2,
    "reviews_count": 5,
    "thumbnail": "https://lh5.googleusercontent.com/p/AF1QipMxPGr-IliDhA9moaZxqVSFCNjnJeFHGMyNub5u",
    "latitude": 10.3712393,
    "longitude": -83.7295292,
    "type": "Auto parts store"
  },
  {
    "name": "Súper salón el sura",
    "address_1": "9758+XGX",
    "address_2": 247,
    "website": "supersaloncr.com",
    "rating": "",
    "reviews_count": "",
    "thumbnail": "",
    "latitude": 10.3599753,
    "longitude": -83.7336406,
    "type": "Cosmetics store"
  },
  {
    "name": "Servicios Veterinarios del Caribe-Cariari",
    "address_1": "9778+656",
    "address_2": 247,
    "website": "",
    "rating": 4.4,
    "reviews_count": 20,
    "thumbnail": "https://lh5.googleusercontent.com/p/AF1QipNuoM2tFNXYdynXdGaPKtiuTehWLZUtm_F6Hn0",
    "latitude": 10.3630499,
    "longitude": -83.7346136,
    "type": "Pet store"
  },
  {
    "name": "Súper San Martín",
    "address_1": "Frente A Escuela Campo Kennedy, Cariari",
    "address_2": "Limón Province, Pococí",
    "website": "",
    "rating": 4.1,
    "reviews_count": 78,
    "thumbnail": "https://lh5.googleusercontent.com/p/AF1QipNn9-ramndV4xqZcSNwEifmKG2yZvlBn2YAQfft",
    "latitude": 10.3604903,
    "longitude": -83.7339729,
    "type": "Supermarket"
  },
  {
    "name": "Colono Agropecuario Ticabán",
    "address_1": "Ticabán finca 1, contiguo aeropuerto de Ticabán",
    "address_2": "Ticabán, Limón, Pococí",
    "website": "colonoagropecuario.com",
    "rating": 4.7,
    "reviews_count": 6,
    "thumbnail": "https://lh5.googleusercontent.com/p/AF1QipM2uQ6DqE9Oxdho9fjSyw0aFqxusE2LXbBUzUMo",
    "latitude": 10.3943489,
    "longitude": -83.8308507,
    "type": "Warehouse"
  },
  {
    "name": "Ale's Cakes",
    "address_1": "200 este de la panadería San Rafael Barrio la esmeralda Limon Pococí",
    "address_2": 70207,
    "website": "facebook.com",
    "rating": 5,
    "reviews_count": 5,
    "thumbnail": "",
    "latitude": 10.2282411,
    "longitude": -83.7933203,
    "type": "Cake shop"
  },
  {
    "name": "Tienda el Angel Propiedad en Venta",
    "address_1": "9778+F7V",
    "address_2": "Unnamed Road,Limón",
    "website": "",
    "rating": 5,
    "reviews_count": 3,
    "thumbnail": "https://lh5.googleusercontent.com/p/AF1QipP02VBcaBrh09Vtqi5Z54YjqBpeKy6Vqa2algyW",
    "latitude": 10.3637384,
    "longitude": -83.7343384,
    "type": "Clothing store"
  },
  {
    "name": "Calzado Moderno",
    "address_1": "Guápiles 100sur Bomberos",
    "address_2": "Costa Rica",
    "website": "",
    "rating": 4.4,
    "reviews_count": 123,
    "thumbnail": "https://lh5.googleusercontent.com/p/AF1QipONFK_hU_wSK0gjGIINl50xyHMjg2XoUblFj9Ij",
    "latitude": 10.2146934,
    "longitude": -83.7899491,
    "type": "Shoe store"
  },
  {
    "name": "Singer Cariari",
    "address_1": "50 mts sur de la clinica del seguro social",
    "address_2": "Limón, Pococí",
    "website": "facebook.com",
    "rating": 3.3,
    "reviews_count": 36,
    "thumbnail": "https://lh5.googleusercontent.com/p/AF1QipNrCVthvHDgzw5HccuxR4nYuL73o7EMGk__O6YW",
    "latitude": 10.3599843,
    "longitude": -83.7359598,
    "type": "Used appliance store"
  },
  {
    "name": "Heladería Bendiciones",
    "address_1": "Contiguo al Denis Bar. Campo Cinco, Pococí",
    "address_2": "Limón, Pococí",
    "website": "",
    "rating": 4.3,
    "reviews_count": 10,
    "thumbnail": "https://lh5.googleusercontent.com/p/AF1QipPtzMe3i1FJUCgjnAFU7yLL3XHftmCSPB79XpcM",
    "latitude": 10.3855039,
    "longitude": -83.7173648,
    "type": "Ice cream shop"
  },
  {
    "name": "Carniceria Maroto Guapiles Pococi",
    "address_1": "Av. 1",
    "address_2": "Limón, Guápiles",
    "website": "",
    "rating": 4.5,
    "reviews_count": 51,
    "thumbnail": "https://lh5.googleusercontent.com/p/AF1QipPXTOPougoAqlX421M2p_eNqRdBLheJHmLdCffi",
    "latitude": 10.2108911,
    "longitude": -83.7891913,
    "type": "Butcher shop"
  },
  {
    "name": "Colono Construcción Cariari",
    "address_1": "Cariari, Frente a estación Uno Limón Cariari",
    "address_2": 70301,
    "website": "colonoconstruccion.com",
    "rating": 4.4,
    "reviews_count": 148,
    "thumbnail": "https://lh5.googleusercontent.com/p/AF1QipNi9m-9-pla5zFkPgxeJSnkeU-qUXf9Lt7ftbmH",
    "latitude": 10.3581537,
    "longitude": -83.7352177,
    "type": "Building materials store"
  },
  {
    "name": "Taller Gómez",
    "address_1": "Nuevo Guápiles",
    "address_2": "Limón Province, Guapiles",
    "website": "",
    "rating": 4.3,
    "reviews_count": 107,
    "thumbnail": "https://lh5.googleusercontent.com/p/AF1QipMUJysETqiM332Cqq5nMlMbCYHOSzWTGZl3Pn2O",
    "latitude": 10.2025544,
    "longitude": -83.7801826,
    "type": "Muffler shop"
  },
  {
    "name": "Centro Comercial Dos Ríos",
    "address_1": "6666+VX9",
    "address_2": "Limón, Guápiles",
    "website": "",
    "rating": "",
    "reviews_count": "",
    "thumbnail": "",
    "latitude": 10.2122364,
    "longitude": -83.7874977,
    "type": "Shopping mall"
  },
  {
    "name": "Centro Plástico Bolsas JMG",
    "address_1": "Guápiles, 150 metros este del cementerio Limón Pococí",
    "address_2": 70201,
    "website": "negocio.site",
    "rating": 5,
    "reviews_count": 7,
    "thumbnail": "https://lh5.googleusercontent.com/p/AF1QipM7ew5COc-F052YFZrekyaevOmFzGBcLl_LSRjl",
    "latitude": 10.2136905,
    "longitude": -83.7942793,
    "type": "Plastic products supplier"
  },
  {
    "name": "Casa de Empeño Marsonger",
    "address_1": "9779+938",
    "address_2": "Cariari - La Rita - Guacimo - Bataan - Siquirres - Limon, 247",
    "website": "",
    "rating": "",
    "reviews_count": "",
    "thumbnail": "",
    "latitude": 10.3634226,
    "longitude": -83.732296,
    "type": "Pawn shop"
  },
  {
    "name": "Tienda RegalArte",
    "address_1": "XVWH+9MJ",
    "address_2": "C. 10",
    "website": "",
    "rating": "",
    "reviews_count": "",
    "thumbnail": "",
    "latitude": 9.9959548,
    "longitude": -84.1208718,
    "type": "Home goods store"
  },
  {
    "name": "T-Shirt Mania Limón - Camisetas Personalizadas",
    "address_1": "La Alegría",
    "address_2": "Limón, Siquirres",
    "website": "",
    "rating": 4.5,
    "reviews_count": 11,
    "thumbnail": "https://lh5.googleusercontent.com/p/AF1QipOQ0Tk5TK-NsQ-d6NsPb3tYPNXJCP9xebqBU8Hk",
    "latitude": 10.0906437,
    "longitude": -83.6011419,
    "type": "Custom t-shirt store"
  },
  {
    "name": "ALMACEN DON JULIO JIMENEZ #2 S.A",
    "address_1": "50 MTS ESTE DEL PARQUE DE JIMENEZ CENTRO",
    "address_2": "Limón, Jiménez",
    "website": "",
    "rating": 4,
    "reviews_count": 3,
    "thumbnail": "https://lh5.googleusercontent.com/p/AF1QipMBJMtJUkEAFyZrpjS7CcExh81O29fteJv51aj8",
    "latitude": 10.2087132,
    "longitude": -83.7413168,
    "type": "Hardware store"
  },
  {
    "name": "Concentrados El Granero Cariari",
    "address_1": "702025 Limón Cariari",
    "address_2": 70205,
    "website": "",
    "rating": "",
    "reviews_count": "",
    "thumbnail": "https://lh5.googleusercontent.com/p/AF1QipOcCoA8EEMt6np3UX6T2dbnv5Nl6ojQjdZ40370",
    "latitude": 10.359745,
    "longitude": -83.7360685,
    "type": "Business center"
  },
  {
    "name": "Imprenta 0026 Litografía Pococí",
    "address_1": "175 m. oeste de los Bomberos, Cuadrante",
    "address_2": "Limón, Guápiles",
    "website": "",
    "rating": "",
    "reviews_count": "",
    "thumbnail": "",
    "latitude": 10.2158622,
    "longitude": -83.7915287,
    "type": "Print shop"
  },
  {
    "name": "Dese un Gustito",
    "address_1": "C5HV+MFQ",
    "address_2": "Unnamed Road, Limón",
    "website": "",
    "rating": "",
    "reviews_count": "",
    "thumbnail": "https://lh5.googleusercontent.com/p/AF1QipMMxvnkrDY9l-WoV0T2T1zYIVG37NfdkjCOviIJ",
    "latitude": 10.4292011,
    "longitude": -83.8062511,
    "type": "Cake shop"
  },
  {
    "name": "Farmacia Pococí S.A",
    "address_1": "75 metros este del Banco Nacional Limón Cariari Centro",
    "address_2": 70205,
    "website": "",
    "rating": 3,
    "reviews_count": 1,
    "thumbnail": "https://lh5.googleusercontent.com/p/AF1QipMCfhekiijotnWJEvAyIk3g0B2DJWAFKgDvvT9b",
    "latitude": 10.3610397,
    "longitude": -83.7332214,
    "type": "Pharmacy"
  },
  {
    "name": "Super Diferente",
    "address_1": "3FXW+3GF",
    "address_2": "Limón Province, Siquirres",
    "website": "",
    "rating": 3.7,
    "reviews_count": 54,
    "thumbnail": "https://lh5.googleusercontent.com/p/AF1QipMsQFdgrnVmUqq90VGL1dchySLfbTt2z3evNZJS",
    "latitude": 10.0976948,
    "longitude": -83.5037163,
    "type": "Supermarket"
  },
  {
    "name": "Tienda Lemon",
    "address_1": 1000,
    "address_2": "Centro Comercial del Sur",
    "website": "",
    "rating": "",
    "reviews_count": "",
    "thumbnail": "",
    "latitude": 9.9174824,
    "longitude": -84.0712234,
    "type": "Clothing store"
  },
  {
    "name": "Empeños La Parada Cariari",
    "address_1": 247,
    "address_2": "Limón, Pococí",
    "website": "",
    "rating": "",
    "reviews_count": "",
    "thumbnail": "https://lh5.googleusercontent.com/p/AF1QipNbc7BRg9LCsgjErWiiGdHcSmZr5-nqePxdK79_",
    "latitude": 10.3578281,
    "longitude": -83.7353128,
    "type": "Pawn shop"
  },
  {
    "name": "finca jardin del tigre s.a",
    "address_1": "96VC+MXC",
    "address_2": "Rita",
    "website": "",
    "rating": 3.7,
    "reviews_count": 33,
    "thumbnail": "https://lh5.googleusercontent.com/p/AF1QipNuJG_279kEwIa6UgxQ12lXEd6XYOnWFw4C1Qbr",
    "latitude": 10.3941806,
    "longitude": -83.7775991,
    "type": "Store"
  },
  {
    "name": "Panadería Palermo.",
    "address_1": "97C6+J6",
    "address_2": "Barrio Palermo, Limón, Pococí",
    "website": "",
    "rating": 5,
    "reviews_count": 1,
    "thumbnail": "https://lh5.googleusercontent.com/p/AF1QipPblLD_w5i8N-haOwC7-isCvOJXULtIvJgeaGbr",
    "latitude": 10.3714888,
    "longitude": -83.739312,
    "type": "Bakery"
  },
  {
    "name": "Carnicería La Predilecta",
    "address_1": "9758+Q8Q",
    "address_2": 247,
    "website": "m.facebook.com",
    "rating": "",
    "reviews_count": "",
    "thumbnail": "",
    "latitude": 10.359471,
    "longitude": -83.7341338,
    "type": "Butcher shop"
  }
]